Id,Name,Code,Latitude,Longitude,City,CountryName,CountryCode,TimezoneOffset
4650,Utirik Airport,UTK,11.222219,169.851429,Utirik Island,Marshall Islands,MH,0
6924,Ocean Reef Club Airport,OCA,25.325399,-80.274803,Key Largo,United States,US,0
7139,Crested Butte Airpark,CSE,38.851918,-106.928341,Crested Butte,United States,US,0
7426,Columbus Airport,CUS,31.823898,-107.629924,Columbus,United States,US,0
7545,LBJ Ranch Airport,JCY,30.251801,-98.622498,Stonewall,United States,US,0
7977,Nunapitchuk Airport,NUP,60.905591,-162.440454,Nunapitchuk,United States,US,0
8126,Icy Bay Airport,ICY,59.966269,-141.660118,Icy Bay,United States,US,0
8383,Kalakaket Creek AS Airport,KKK,64.4166256967,-156.820392609,Kalakaket Creek,United States,US,0
8566,Dunsmuir Muni-Mott Airport,MHS,41.263199,-122.272003,Dunsmuir,United States,US,0
8753,Chase Field Industrial Airport,NIR,28.362444,-97.661917,Beeville,United States,US,0
8774,Grand Canyon Bar Ten Airstrip,GCT,36.257984,-113.231063,Littlefield,United States,US,0
9287,Lime Village Airport,LVD,61.3591003418,-155.440002441,Lime Village,United States,US,0
9294,Hog River Airport,HGZ,66.176133,-155.684816,Hogatza,United States,US,0
20770,Ed-Air Airport,OTN,38.851782,-87.49987,Oaktown,United States,US,0
9485,Telida Airport,TLF,63.393902,-153.268997,Telida,United States,US,0
9776,Eagle Air Park,BZT,28.982200622559,-95.579696655273,Brazoria,United States,US,0
10309,Blakely Island Airport,BYW,48.579162,-122.823844,Blakely Island,United States,US,0
10366,Drift River Airport,DRF,60.588901519800004,-152.162002563,Kenai,United States,US,0
10532,Rinkenberger Restricted Landing Area,BDF,41.230899810800004,-89.61569976810001,Bradford,United States,US,0
10784,Tetlin Airport,TEH,63.124618,-142.518005,Tetlin,United States,US,0
10856,Roy Otten Memorial Airfield,VRS,38.427799224854,-92.875198364258,Versailles,United States,US,0
11318,Atmautluak Airport,ATT,60.866699,-162.272996,Atmautluak,United States,US,0
11320,Livengood Camp Airport,LIV,65.467,-148.6534,Livengood,United States,US,0
11485,Pedro Bay Airport,PDB,59.796925,-154.129994,Pedro Bay,United States,US,0
11487,Ouzinkie Airport,KOZ,57.942094,-152.464314,Ouzinkie,United States,US,0
11488,Tununak Airport,TNK,60.569638,-165.246649,Tununak,United States,US,0
11900,Minto Al Wright Airport,MNT,65.147991,-149.368658,Minto,United States,US,0
12243,Aleknagik / New Airport,WKK,59.2826004028,-158.617996216,Aleknagik,United States,US,0
12518,Rollang Field,RFK,32.953543,-90.845144,Rolling Fork,United States,US,0
12560,Naknek Airport,NNK,58.735633,-157.02216,Naknek,United States,US,0
12995,Southern Seaplane Airport,BCS,29.866078,-90.021608,Belle Chasse,United States,US,0
13202,Minute Man Air Field,MMN,42.460298,-71.519031,Stow,United States,US,0
13485,Earl Henry Airport,BWL,36.7958984375,-97.3170013428,Blackwell,United States,US,0
13997,Center Island Airport,CWS,48.490046,-122.831612,Center Island,United States,US,0
14173,Tatitlek Airport,TEK,60.871449,-146.690297,Tatitlek,United States,US,0
14270,Pine Island Airport,DUF,36.252744,-75.785256,Corolla,United States,US,0
14453,Stuart Island Airpark,SSW,48.673379,-123.175439,Friday Harbor,United States,US,0
14559,Fort Bragg Airport,FOB,39.472445,-123.795319,Fort Bragg,United States,US,0
19113,Maxson Airfield,AXB,44.312002,-75.90034,Alexandria Bay,United States,US,0
15267,Reese Airpark,REE,33.590301513672,-102.03700256348,Lubbock,United States,US,0
15300,Waldron Airstrip,WDN,48.71141,-123.018208,Eastsound,United States,US,0
15640,Chuathbaluk Airport,CHU,61.579102,-159.216003,Chuathbaluk,United States,US,0
15641,Ugashik Airport,UGS,57.523476,-157.396344,Ugashik,United States,US,0
16069,Levelock Airport,KLL,59.12606,-156.860906,Levelock,United States,US,0
16082,Tuntutuliak Airport,WTL,60.351243,-162.654476,Tuntutuliak,United States,US,0
16083,Twin Hills Airport,TWA,59.074713,-160.274992,Twin Hills,United States,US,0
16089,Chignik Lake Airport,KCQ,56.255001,-158.774994,Chignik Lake,United States,US,0
324756,Adado Airport,AAD,6.095802,46.6375,Adado,Somalia,SO,0
301645,Atkamba Airport,ABP,-6.06462,141.095173,Atkamba Mission,Papua New Guinea,PG,0
41025,Arica Airport,ACM,-2.143713,-71.75935,Arica,Colombia,CO,0
309426,El Daein Airport,ADV,11.4023,26.1186,El Daein,Sudan,SD,0
300307,Adareil Airport,AEE,10.053611,32.959444,Adar,South Sudan,SS,0
330359,Ar Horqin Airport,AEQ,43.908407,120.15099,Chifeng,China,CN,0
336537,Burton-Nibbs International Airport,BBQ,17.621194,-61.798347,Codrington,Antigua and Barbuda,AG,0
301649,Afutara Aerodrome,AFT,-9.191389,160.948611,Bila,Solomon Islands,SB,0
302290,Ulawa Airport,RNA,-9.86054358262,161.979546547,Arona,Solomon Islands,SB,0
35172,Uru Harbour Airport,ATD,-8.87333,161.011002,Atoifi,Solomon Islands,SB,0
32570,Barakoma Airport,VEV,-7.912779808044434,156.70599365234375,Barakoma,Solomon Islands,SB,0
302402,Batuna Aerodrome,BPF,-8.56202777778,158.119305556,Batuna Mission Station,Solomon Islands,SB,0
31524,Geva Airport,GEF,-7.575829982757568,156.5970001220703,Liangia,Solomon Islands,SB,0
301650,Angoram Airport,AGG,-4.057077,144.073841,Angoram,Papua New Guinea,PG,0
30634,Gwaunaru'u Airport,AKS,-8.70257,160.682007,Auki,Solomon Islands,SB,0
302047,Bellona/Anua Airport,BNY,-11.302222222200001,159.798333333,Anua,Solomon Islands,SB,0
302291,Choiseul Bay Airport,CHY,-6.711944,156.396111,Choiseul Bay,Solomon Islands,SB,0
30678,Ballalae Airport,BAS,-6.990745,155.886656,Ballalae,Solomon Islands,SB,0
35167,Fera/Maringe Airport,FRE,-8.1075,159.576996,Fera Island,Solomon Islands,SB,0
3,Honiara International Airport,HIR,-9.428,160.054993,Honiara,Solomon Islands,SB,0
31885,Babanakira Airport,MBU,-9.7475,159.839005,Mbambanakira,Solomon Islands,SB,0
301837,Avu Avu Airport,AVU,-9.868333,160.410556,Avu Avu,Solomon Islands,SB,0
31686,Ngorangora Airport,IRA,-10.449700355500001,161.897994995,Kirakira,Solomon Islands,SB,0
32275,Santa Cruz/Graciosa Bay/Luova Airport,SCZ,-10.7203,165.794998,Santa Cruz/Graciosa Bay/Luova,Solomon Islands,SB,0
4,Munda Airport,MUA,-8.32797,157.263,Munda,Solomon Islands,SB,0
31563,Nusatupe Airport,GZO,-8.09778022766,156.863998413,Gizo,Solomon Islands,SB,0
31932,Mono Airport,MNY,-7.41694,155.565002,Stirling Island,Solomon Islands,SB,0
32174,Parasi Airport,PRS,-9.641670227050781,161.4250030517578,Parasi,Solomon Islands,SB,0
35171,Rennell/Tingoa Airport,RNL,-11.55,160.062778,Rennell Island,Solomon Islands,SB,0
30989,Sege Airport,EGM,-8.57889,157.876007,Sege,Solomon Islands,SB,0
308425,Santa Ana Airport,NNB,-10.847994,162.454108,Santa Ana Island,Solomon Islands,SB,0
32238,Marau Airport,RUS,-9.86167,160.824997,Marau,Solomon Islands,SB,0
32564,Suavanao Airport,VAO,-7.58556,158.731003,Suavanao,Solomon Islands,SB,0
302292,Yandina Airport,XYA,-9.092816,159.21841,Yandina,Solomon Islands,SB,0
301651,Kagua Airport,AGK,-6.396388888890001,143.853611111,Kagua,Papua New Guinea,PG,0
35169,Kaghau Airport,KGE,-7.3305,157.585,Kagau Island,Solomon Islands,SB,0
310179,Kukudu Airport,KUE,-8.0262,156.94783,Kolombangara Island,Solomon Islands,SB,0
308424,Kwailabesi Airport,KWS,-8.360508,160.775127,Kwailabesi,Solomon Islands,SB,0
524977,Lomlom Airport,LLM,-10.296828,166.327322,Lomlom,Solomon Islands,SB,0
310002,Nana Airport,NAZ,-10.6758,162.2049,Star Harbor,Solomon Islands,SB,0
508090,Manaoba Airport,MHM,-8.325008,160.80051,Manaoba,Solomon Islands,SB,0
35168,Gatokae Aerodrome,GTA,-8.738358,158.202836,Gatokae,Solomon Islands,SB,0
32211,Ringi Cove Airport,RIN,-8.12639045715332,157.14300537109375,Ringi Cove,Solomon Islands,SB,0
35170,Ramata Airport,RBV,-8.168060302734375,157.64300537109375,Ramata,Solomon Islands,SB,0
299324,Ambatolhy Airport,AHY,-20.015833333299998,45.535,Ambatolahy,Madagascar,MG,0
299328,Ailinglaplap Airok Airport,AIC,7.279422,168.8257,Bigatyelang Island,Marshall Islands,MH,0
16108,Chena Hot Springs Airport,CEX,65.0518035889,-146.04699707,Chena Hot Springs,United States,US,0
16120,Solomon State Field,SOL,64.5605,-164.4457,Solomon,United States,US,0
16125,Herendeen Bay Airport,HED,55.802346,-160.901346,Herendeen Bay,United States,US,0
16141,Taylor Airport,TWE,65.6792984009,-164.798995972,Taylor,United States,US,0
16169,Candle 2 Airport,CDL,65.907699585,-161.925994873,Candle,United States,US,0
16188,Boswell Bay Airport,BSW,60.4230995178,-146.145996094,Boswell Bay,United States,US,0
301754,Zakuoma Airport,AKM,10.8902777778,19.8172222222,ZaKouma,Chad,TD,0
605715,(Duplicate)Vlora International Airport,VLO,40.605556,19.426111,Vlorë,Albania,AL,0
44682,Syunik Airport,YUK,39.202272,46.455204,Kapan,Armenia,AM,0
301755,Alto Molocue Airport,AME,-15.6102777778,37.6813888889,Alto Molocue,Mozambique,MZ,0
301758,Ambatomainty Airport,AMY,-17.686667,45.623889,Ambatomainty,Madagascar,MG,0
8,Nauru International Airport,INU,-0.547893,166.919525,Yaren,Nauru,NR,0
312361,Angus Downs Airport,ANZ,-25.0325,132.2748,Angus Downs Station,Australia,AU,0
35325,Catoca Airport,CTV,-9.431359,20.311557,Saurimo,Angola,AO,0
43971,Andulo Airport,ANL,-11.4723,16.710899,Andulo,Angola,AO,0
30840,Cangamba Airport,CNZ,-13.7106,19.861099,Cangamba,Angola,AO,0
43323,Dirico Airport,DRC,-17.981924,20.768061,Dirico,Angola,AO,0
43326,N'dalatando Airport,NDF,-9.280378,14.982432,N'dalatando,Angola,AO,0
301705,Annanberg Airport,AOB,-4.90416666667,144.635833333,Annanberg,Papua New Guinea,PG,0
312362,Abou-Deïa Airport,AOD,11.4773,19.2874,Abou-Deïa,Chad,TD,0
301727,Asapa Airport,APP,-8.979167,148.103611,Asapa,Papua New Guinea,PG,0
16294,Girdwood-Alyeska Airport,AQY,60.968774,-149.119792,Girdwood,United States,US,0
35399,Bragado Airport,QRF,-35.145811,-60.480294,Bragado,Argentina,AR,0
35401,Caleta Olivia Airport,CVI,-46.37428,-67.59409,Caleta Olivia,Argentina,AR,0
35403,Charata Airport,CNT,-27.2164,-61.2103,Charata,Argentina,AR,0
35404,General Villegas Airport,VGS,-34.995728,-62.999725,General Villegas,Argentina,AR,0
35405,Los Menucos Airport,LMD,-40.817699,-68.074699,Los Menucos,Argentina,AR,0
35412,Valcheta Airport,VCF,-40.700001,-66.150002,Valcheta,Argentina,AR,0
42812,Carmen de Patagones Airport,CPG,-40.7781,-62.9803,Carmen de Patagones,Argentina,AR,0
301707,Aragip Airport,ARP,-9.88333333333,149.483333333,Aragip,Papua New Guinea,PG,0
301732,Asirim Airport,ASZ,-6.009722222220001,150.368611111,Asirim,Papua New Guinea,PG,0
601314,(Duplicate)Wolf's Fang Runway,WFR,-71.5264,8.799459,Queen Maud Island,Antarctica,AQ,0
313838,Lady Elliot Island Airstrip,LYT,-24.1129,152.7156,Lady Elliot Island,Australia,AU,0
354527,Gruyere Airport,GYZ,-28.034548,123.81506,Cosmo Newbery,Australia,AU,0
30622,Agnew Airport,AGW,-12.1456,142.149369,Agnew,Australia,AU,0
30666,Alroy Downs Airport,AYD,-19.2908,136.078995,Alroy Downs,Australia,AU,0
30808,Baniyala Airport,BYX,-13.1981,136.227005,Baniyala,Australia,AU,0
30841,Coolibah Airport,COB,-15.548299789428711,130.96200561523438,Coolibah,Australia,AU,0
30851,Coorabie Airport,CRJ,-31.894399642944336,132.29600524902344,Coorabie,Australia,AU,0
30853,Carlton Hill Airport,CRY,-15.501899719238281,128.53399658203125,Carlton Hill,Australia,AU,0
30855,Cresswell Downs Airport,CSD,-17.947999954223633,135.91600036621094,Cresswell Downs,Australia,AU,0
30959,Diamantina Lakes Airport,DYM,-23.761699676513672,141.14500427246094,Diamantina Lakes,Australia,AU,0
31606,Helenvale Airport,HLV,-15.685799598693848,145.21499633789062,Helenvale,Australia,AU,0
31723,Kimberley Downs Airport,KBD,-17.39780044555664,124.3550033569336,Kimberley Downs,Australia,AU,0
31745,Kulgera Airport,KGR,-25.8428,133.292007,Ghan,Australia,AU,0
32152,Peppimenarti Airport,PEP,-14.1442,130.091003,Peppimenarti,Australia,AU,0
32201,Rockhampton Downs Airport,RDA,-18.95330047607422,135.2010040283203,Rockhampton Downs,Australia,AU,0
32384,Sturt Creek Airport,SSK,-19.166400909423828,128.1739959716797,Sturt Creek,Australia,AU,0
32401,Shaw River Airport,SWB,-21.510299682617188,119.36199951171875,Shaw River,Australia,AU,0
32486,Torwood Airport,TWP,-17.363300323486328,143.75,Torwood,Australia,AU,0
32752,Springvale Airport,ZVG,-17.7869,127.669998,Springvale,Australia,AU,0
313134,Awar Airport (unusable),AWR,-4.122278,144.853292,Awar,Papua New Guinea,PG,0
314558,Alxa Left Banner Bayanhot Airport,AXF,38.748317,105.58416,Bayanhot,China,CN,0
352222,Pantar Kabir Airport,AXO,-8.244832,124.219108,Kabir,Indonesia,ID,0
301676,Ama Airport,AMF,-4.10111111111,141.67,Ama,Papua New Guinea,PG,0
301736,Mount Aue Airport,UAE,-6.229978,144.664181,Aue,Papua New Guinea,PG,0
301665,Afore Airstrip,AFR,-9.13867,148.390701,Afore,Papua New Guinea,PG,0
301668,Agaun Airport,AUP,-9.927715,149.389951,Agaun,Papua New Guinea,PG,0
301672,Aitape Airport,ATP,-3.143611,142.346806,Aitape,Papua New Guinea,PG,0
301654,Aiambak Airport,AIH,-7.342777777779999,141.2675,Aiambak,Papua New Guinea,PG,0
301689,Amanab Airport,AMU,-3.586,141.214333333,Amanab,Papua New Guinea,PG,0
301695,Andakombe Airport,ADC,-7.13722222222,145.744722222,Andekombe,Papua New Guinea,PG,0
46170,Aiome Airport,AIE,-5.145699978,144.7307003,Aiome,Papua New Guinea,PG,0
307980,Kompiam Airport,KPM,-5.38166666667,143.924722222,Kompiam,Papua New Guinea,PG,0
301693,Ambunti Airport,AUJ,-4.21566666667,142.823166667,Ambunti,Papua New Guinea,PG,0
42763,Awaba Airport,AWB,-8.013414,142.752099,Awaba,Papua New Guinea,PG,0
299319,Aseki Airport,AEK,-7.350805,146.193994,Aseki,Papua New Guinea,PG,0
301673,Aiyura Airport,AYU,-6.33805555556,145.904166667,Aiyura Valley,Papua New Guinea,PG,0
35179,Baimuru Airport,VMU,-7.496955,144.821756,Baimuru,Papua New Guinea,PG,0
301858,Bambu Airport,BCP,-5.863611111110001,146.4925,Bambu,Papua New Guinea,PG,0
301975,Bodinumu Airport,BNM,-9.107777777779999,147.666722222,Bodinumu,Papua New Guinea,PG,0
302044,Bamu Airport,BMZ,-7.8485,143.2433,Bamu,Papua New Guinea,PG,0
301874,Baindoung Airport,BDZ,-6.34722222222,146.942222222,Baindoung,Papua New Guinea,PG,0
301802,Bensbach Airport,BSP,-8.85805555556,141.259444444,Bensbach,Papua New Guinea,PG,0
301803,Bewani Airport,BWP,-3.0216666666700003,141.165277778,Bewani,Papua New Guinea,PG,0
53,Buka Airport,BUA,-5.422299,154.672698,Buka Island,Papua New Guinea,PG,0
30675,Bialla Airport,BAA,-5.3305602073700005,151.007995605,"Bialla, Matalilu, Ewase",Papua New Guinea,PG,0
35180,Balimo Airport,OPU,-8.05000019073,142.932998657,Balimo,Papua New Guinea,PG,0
302041,Bomai Airport,BMH,-6.37316666667,144.637,Bomai,Papua New Guinea,PG,0
301792,Bapi Airstrip,BPD,-7.743611111110001,147.020555556,Bapi,Papua New Guinea,PG,0
301804,Biangabip Airport,BPK,-5.526389,141.744583,Biangabip,Papua New Guinea,PG,0
311258,Biaru Airport,BRP,-7.6693,146.7594,Biaru,Papua New Guinea,PG,0
46171,Bulolo Airport,BUL,-7.216286671410001,146.649541855,Bulolo,Papua New Guinea,PG,0
301809,Biniguni Airport,XBN,-9.6425,149.303889,Biniguni,Papua New Guinea,PG,0
35147,Chungribu Airport,CVB,-4.80662,144.714996,Chungribu,Papua New Guinea,PG,0
46172,Cape Gloucester Airport,CGC,-5.455231,148.422289,Cape Gloucester,Papua New Guinea,PG,0
54,Chimbu Airport,CMU,-6.024290084838867,144.9709930419922,Kundiawa,Papua New Guinea,PG,0
302210,China Strait Airstrip,SQT,-10.5627777778,150.690694444,Samarai Island,Papua New Guinea,PG,0
302094,Debepare Airport,DBP,-6.30861111111,141.905555556,Debepare,Papua New Guinea,PG,0
302107,Derim Airport,DER,-6.14472222222,147.107222222,Derim,Papua New Guinea,PG,0
302046,Bundi Airport,BNT,-5.742222222220001,145.2275,Bundi,Papua New Guinea,PG,0
313962,Munduku Airport,MDM,-4.6204,143.4516,Munduku,Papua New Guinea,PG,0
311717,Kondobol Airport,KPF,-8.5336,142.5049,Kondobol,Papua New Guinea,PG,0
311110,Dinangat Airport,DNU,-6.1546,146.6772,Dinangat,Papua New Guinea,PG,0
311116,Doini Airport,DOI,-10.7009,150.7218,Castori Islets,Papua New Guinea,PG,0
308061,Dorobisoro Airport,DOO,-9.461855,147.920907,Dorobisoro,Papua New Guinea,PG,0
55,Daru Airport,DAU,-9.08676,143.207993,Daru,Papua New Guinea,PG,0
308223,Kerau Airport,KRU,-8.271612,147.071899,Gunim,Papua New Guinea,PG,0
311135,Embessa Airport,EMS,-9.447,148.7628,Embessa,Papua New Guinea,PG,0
308012,Edwaki Airport,XYR,-3.883986,141.792234,Yellow River Mission,Papua New Guinea,PG,0
46174,Emirau Airport,EMI,-1.653949991,149.9757667,Emirau Island,Papua New Guinea,PG,0
302537,Efogi Airport,EFG,-9.15380555556,147.659805556,Efogi,Papua New Guinea,PG,0
306957,Morehead Airport,MHY,-8.71411111111,141.644444444,Morehead,Papua New Guinea,PG,0
311132,Eliptamin Airport,EPT,-5.0412,141.6779,Eliptamin,Papua New Guinea,PG,0
311202,Engati Airstrip,EGA,-6.9179,146.1053,Engati,Papua New Guinea,PG,0
311200,Emo River Airstrip,EMO,-9.1234,148.0415,Emo Mission,Papua New Guinea,PG,0
311205,Erume Airport,ERU,-8.2538,146.9747,Erume,Papua New Guinea,PG,0
313974,Meselia Airport,MFZ,-6.1364,149.1183,Demgulu,Papua New Guinea,PG,0
301979,Bosset Airport,BOT,-7.237257,141.1063222,Bosset,Papua New Guinea,PG,0
46175,Erave Airport,ERE,-6.60646315446,143.900213242,Erave,Papua New Guinea,PG,0
307647,Siwea Airport,SWE,-6.284181,147.582371,Siwea,Papua New Guinea,PG,0
307150,Fane Airport,FNE,-8.54927777778,147.085833333,Fane Mission,Papua New Guinea,PG,0
311370,Feramin Airport,FRQ,-5.208,141.6988,Feramin,Papua New Guinea,PG,0
46177,Finschhafen Airport,FIN,-6.621750109,147.85405,Buki,Papua New Guinea,PG,0
307757,Frieda River Airport,FAQ,-4.610468,141.960138,Frieda River,Papua New Guinea,PG,0
311384,Fuma Airport,FUM,-6.3933,142.4408,Fuma,Papua New Guinea,PG,0
56,Goroka Airport,GKA,-6.081689834590001,145.391998291,Goronka,Papua New Guinea,PG,0
309161,Gewoia Airport,GEW,-9.2263,148.4949,Gewoia,Papua New Guinea,PG,0
311430,Guari Airport,GUG,-8.1286,146.8722,Guari,Papua New Guinea,PG,0
308005,Garasa Airport,GRL,-7.980713,147.213461,Au,Papua New Guinea,PG,0
46178,Garaina Airport,GAR,-7.875625,147.141266,Garaina,Papua New Guinea,PG,0
307735,Guasopa Airport,GAZ,-9.225918,152.944352,Woodlark (Muyua) Island,Papua New Guinea,PG,0
46180,Gonaili Airport,GOE,-5.527716614,151.5733333,Gonaili,Papua New Guinea,PG,0
57,Gurney Airport,GUR,-10.3114995956,150.333999634,Gurney,Papua New Guinea,PG,0
307709,Gusap Airport,GAP,-6.053196,145.959047,Gusap,Papua New Guinea,PG,0
58,Girua Airport,PNP,-8.80453968048,148.309005737,Popondetta,Papua New Guinea,PG,0
311386,Gasuke Airport,GBC,-6.1028,141.7393,Gasuke,Papua New Guinea,PG,0
31542,Gasmata Island Airport,GMI,-6.27111005783,150.330993652,Gasmata Island,Papua New Guinea,PG,0
42760,Anguganak Airport,AKG,-3.560504,142.217307,Anguganak,Papua New Guinea,PG,0
42761,Green River Airport,GVI,-3.9022428989400004,141.170516968,Green River,Papua New Guinea,PG,0
309180,Gora Airstrip,GOC,-9.0021,148.2364,Gora,Papua New Guinea,PG,0
311468,Habi Airport,HBD,-6.32,142.4893,Habi,Papua New Guinea,PG,0
311487,Heiweni Airport,HNI,-7.4223,146.4276,Heiweni,Papua New Guinea,PG,0
42758,Hayfields Airport,HYF,-3.69838,143.057902,Bainyik,Papua New Guinea,PG,0
312918,Honinabi Airport,HNN,-6.2457,142.1771,Honinabi,Papua New Guinea,PG,0
59,Hoskins Airport,HKN,-5.463846,150.407327,Kimbe,Papua New Guinea,PG,0
311472,Haivaro Airport,HIT,-6.9406,143.059,Haivaro,Papua New Guinea,PG,0
307891,Hawabango Airport,HWA,-7.392994,146.003487,Hawabango,Papua New Guinea,PG,0
31669,Nissan Island Airport,IIS,-4.49972009659,154.225997925,Nissan Island,Papua New Guinea,PG,0
309146,Indagen Airport,IDN,-6.22663,147.244,Indagen,Papua New Guinea,PG,0
312938,Imane Airport,IMN,-6.7524,146.1072,Imane,Papua New Guinea,PG,0
313419,Kungim Airport,KGM,-5.671,141.03,Kungim,Papua New Guinea,PG,0
312964,Imonda Airport,IMD,-3.328,141.1573,Imonda,Papua New Guinea,PG,0
302264,Aropa Airport,KIE,-6.305727,155.728249,Kieta,Papua New Guinea,PG,0
312934,Ialibu Airport,IAL,-6.2782,143.9944,Ialibu,Papua New Guinea,PG,0
309970,Wasua Airport,WSA,-8.2836,142.8697,Wasua,Papua New Guinea,PG,0
319533,Witu Airport,WIU,-4.689522,149.440112,Garove Island,Papua New Guinea,PG,0
306954,Miyanmin Airport,MPX,-4.903055555560001,141.620833333,Miyanmin,Papua New Guinea,PG,0
311794,Yongai Airport,KGH,-8.5289,147.4603,Yongai,Papua New Guinea,PG,0
302154,Josephstaal Airport,JOP,-4.74708333333,145.007083333,Josephstaal,Papua New Guinea,PG,0
35188,Losuia Airport,LSA,-8.505820274353027,151.08099365234375,Losuia,Papua New Guinea,PG,0
302155,Kabwum,KBM,-6.15547222222,147.191472222,Kabwum,Papua New Guinea,PG,0
35183,Kandrian Airport,KDR,-6.19217,149.54783,Kandrian,Papua New Guinea,PG,0
307560,Kamina Airport,KMF,-7.64925,145.956944444,Hoieti,Papua New Guinea,PG,0
308795,Kopiago Airport,KPA,-5.3883,142.4977,Kopiago,Papua New Guinea,PG,0
302390,Kamulai Airport,KAQ,-8.150694444440001,146.834,Kamulai Mission,Papua New Guinea,PG,0
35185,Kiunga Airport,UNG,-6.1257100105285645,141.28199768066406,Kiunga,Papua New Guinea,PG,0
308592,Kanainj Airport,KNE,-5.2903,144.7072,Kanainj,Papua New Guinea,PG,0
35184,Kikori Airport,KRI,-7.42438,144.250076,Kikori,Papua New Guinea,PG,0
60,Kerema Airport,KMA,-7.96361017227,145.770996094,Kerema,Papua New Guinea,PG,0
35186,Kokoda Airport,KKD,-8.884679,147.730957,Kokoda,Papua New Guinea,PG,0
302158,Kagi Airport,KGW,-9.135916666670001,147.669444444,Kagi,Papua New Guinea,PG,0
308594,Kar Kar Airport,KRX,-4.557,145.9404,Kar Kar Island,Papua New Guinea,PG,0
302157,Kaintiba Airport,KZF,-7.50025,146.033833333,Kaintiba,Papua New Guinea,PG,0
308319,Kuri Airport,KUQ,-7.135083,143.276111,Kuri,Papua New Guinea,PG,0
61,Kavieng Airport,KVG,-2.57940006256,150.807998657,Kavieng,Papua New Guinea,PG,0
42764,Kawito Airport,KWO,-7.977006912229999,142.823577881,Kawito,Papua New Guinea,PG,0
31837,Londolovit Airport,LNV,-3.04361009598,152.628997803,Londolovit,Papua New Guinea,PG,0
312686,Lab Lab Airport,LAB,-5.7204,148.0566,Lab Lab Mission,Papua New Guinea,PG,0
307905,Keglsugl Airport,KEG,-5.83277777778,145.097222222,Denglagu Mission,Papua New Guinea,PG,0
308437,Kibuli Airstrip,KII,-9.006528,142.698056,Kibuli,Papua New Guinea,PG,0
302389,Linga Linga Airport,LGN,-5.5319444444400006,149.734166667,Linga Linga,Papua New Guinea,PG,0
302387,Langimar Airport,LNM,-7.22313888889,146.227083333,Langimar,Papua New Guinea,PG,0
313841,Lowai Airport,LWI,-6.3344,146.6458,Lowai,Papua New Guinea,PG,0
313927,Leron Plains Airport,LPN,-6.3917,146.3434,Leron Plains,Papua New Guinea,PG,0
313944,Lese Airport,LNG,-8.2799,146.2765,Lese,Papua New Guinea,PG,0
302388,Lengbati Airport,LNC,-6.384611111110001,147.368638889,Lengbati,Papua New Guinea,PG,0
42762,Lumi Airport,LMI,-3.47683951134,142.041292191,Lumi,Papua New Guinea,PG,0
313946,Long Island Airport,LSJ,-5.3604,147.0177,Long Island,Papua New Guinea,PG,0
314134,Manari Airport,MRM,-9.1908,147.6219,Manari,Papua New Guinea,PG,0
312797,Morobe Airport,OBM,-7.74,147.59,Morobe,Papua New Guinea,PG,0
306956,Menyamya Airport,MYX,-7.21166666667,146.019361111,Menyamya,Papua New Guinea,PG,0
62,Madang Airport,MAG,-5.20707988739,145.789001465,Madang,Papua New Guinea,PG,0
63,Mount Hagen Kagamuga Airport,HGU,-5.828212,144.299412,Mount Hagen,Papua New Guinea,PG,0
306955,Mindik Airport,MXK,-6.47166666667,147.441138889,Mindik,Papua New Guinea,PG,0
302532,Makini Airport,MPG,-6.532222222220001,147.651166667,Makini,Papua New Guinea,PG,0
308188,Mougulu Airport,GUV,-6.280859,142.420775,Mougulu,Papua New Guinea,PG,0
64,Mendi Airport,MDU,-6.14774,143.656998,Mendi,Papua New Guinea,PG,0
65,Momote Airport,MAS,-2.06189,147.423996,Manus Island,Papua New Guinea,PG,0
302535,Malalaua Airport,MLQ,-8.07138888889,146.155472222,Malalaua,Papua New Guinea,PG,0
302536,Malam Airport,MQO,-8.70916666667,142.649722222,Malam,Papua New Guinea,PG,0
31981,Moro Airport,MXH,-6.36332988739,143.238006592,Moro,Papua New Guinea,PG,0
31911,Misima Island Airport,MIS,-10.689200401299999,152.837997437,Misima Island,Papua New Guinea,PG,0
302540,Malekolon Airport,MKN,-4.02343055556,153.657277778,Babase Island,Papua New Guinea,PG,0
308796,Marawaka Airport,MWG,-6.9736,145.8849,Marawaka,Papua New Guinea,PG,0
302531,Mapua(Mabua) Airport,MPU,-2.81138888889,151.991111111,Tatau Island,Papua New Guinea,PG,0
316543,Nankina Airport,NKN,-5.837,146.4533,Gwarawon,Papua New Guinea,PG,0
307561,Kanabea Airport,KEX,-7.538888888890001,145.905,Kanabea,Papua New Guinea,PG,0
302538,Nadunumu Airport,NDN,-9.14355555556,147.68425,Nadunumu,Papua New Guinea,PG,0
301735,Aua Island Airport,AUI,-1.46055555556,143.064722222,Aua Island,Papua New Guinea,PG,0
308173,Negarbo(Negabo) Airport,GBF,-6.567778,144.703058,Negarbo,Papua New Guinea,PG,0
308139,Manguna Airport,MFO,-5.577778,151.792333,Manguna,Papua New Guinea,PG,0
308517,Nuguria Airstrip,NUG,-3.4075,154.7383,Nuguria Island,Papua New Guinea,PG,0
306967,Namudi Airport,NDI,-9.47375,148.329416667,Namudi,Papua New Guinea,PG,0
311620,Kasonombe Airport,KSB,-6.3819,146.9859,Kasonombe,Papua New Guinea,PG,0
307562,Kandep Airport,KDP,-5.84061111111,143.507222222,Kandep,Papua New Guinea,PG,0
308583,Nomane Airport,NMN,-6.32183,145.070667,Namane,Papua New Guinea,PG,0
310095,Bunsil Airport,BXZ,-5.7243,147.8667,Bunsil - Umboi Island,Papua New Guinea,PG,0
35189,Nuku Airport,UKU,-3.676651,142.484334,Nuku,Papua New Guinea,PG,0
301834,Namatanai Airport,ATN,-3.6695,152.438,Namatanai,Papua New Guinea,PG,0
313487,Nambaiyufa Airport,NBA,-6.2412,145.2424,Nambaiyufa,Papua New Guinea,PG,0
66,Nadzab Tomodachi International Airport,LAE,-6.567995,146.726544,Lae,Papua New Guinea,PG,0
35190,Obo Airport,OBX,-7.590622421369999,141.324262619,Obo,Papua New Guinea,PG,0
313220,Konge Airport,KGB,-6.2239,147.2152,Konge,Papua New Guinea,PG,0
306981,Okao Airport,OKV,-5.55666666667,141.032777778,Okao,Papua New Guinea,PG,0
306980,Ogeranang Airport,OGE,-6.46675,147.364166667,Ogeranang,Papua New Guinea,PG,0
311909,Oksapmin Airport,OKP,-5.2261,142.2259,Oksapmin,Papua New Guinea,PG,0
313218,Komako Airport,HOC,-7.3984,145.8827,Komako,Papua New Guinea,PG,0
302385,Kol Airport,KQL,-5.73116666667,144.846,Kol,Papua New Guinea,PG,0
306992,Omora Airport,OSE,-7.82777777778,147.080638889,Omora,Papua New Guinea,PG,0
308516,Komo-Manda Airport,KOM,-6.0682,142.8598,Komo,Papua New Guinea,PG,0
308318,Kosipe Airport,KSP,-8.450716,147.209195,Kosipe Mission,Papua New Guinea,PG,0
311706,Komaio Airport,KCJ,-7.2714,143.5952,Komaio,Papua New Guinea,PG,0
306982,Olsobip Airport,OLQ,-5.3897222222200005,141.515277778,Olsobip,Papua New Guinea,PG,0
313288,Koroba Airport,KDE,-5.6952,142.7441,Koroba,Papua New Guinea,PG,0
331003,Open Bay Airport,OPB,-4.794727,151.696195,Maitanakunai,Papua New Guinea,PG,0
306995,Paiela Airport,PLE,-5.372407,142.975774,Paiela,Papua New Guinea,PG,0
311954,Pangoa Airport,PGB,-7.0226,141.5605,Pangoa,Papua New Guinea,PG,0
307076,Pindiu Airport,PDI,-6.445138888890001,147.515833333,Pindiu,Papua New Guinea,PG,0
301706,April River Airport,APR,-4.67666666667,142.540138889,April River,Papua New Guinea,PG,0
316621,Pangia Airport,PGN,-6.386,144.1084,Pangia,Papua New Guinea,PG,0
307075,Pimaga Airport,PMP,-6.49916666667,143.510277778,Pimaga,Papua New Guinea,PG,0
312804,Mapoda Airport,MPF,-7.979,143.1694,Mapoda,Papua New Guinea,PG,0
312000,Pumani Airport,PMN,-9.7469,149.4766,Pumani,Papua New Guinea,PG,0
307113,Walluanda Airport,WLU,-6.475161,143.987222,Puri,Papua New Guinea,PG,0
67,Port Moresby Jacksons International Airport,POM,-9.443380355834961,147.22000122070312,Port Moresby,Papua New Guinea,PG,0
301757,Karawari Airstrip,KRJ,-4.59666666667,143.5225,Amboin,Papua New Guinea,PG,0
307239,Tumolbil Airport,TLP,-4.7748,141.0133,Tumolbil,Papua New Guinea,PG,0
312128,Sopu Airport,SPH,-8.3038,147.1659,Sopu,Papua New Guinea,PG,0
306993,Ononge Airport,ONB,-8.67436111111,147.262416667,Onange Mission,Papua New Guinea,PG,0
312022,Sialum Airport,SXA,-6.0908,147.5955,Sialum,Papua New Guinea,PG,0
302383,Kira Airport,KIQ,-8.065111111110001,147.332027778,Kira,Papua New Guinea,PG,0
307079,Raba Raba Airport,RBP,-9.97111111111,149.832222222,Rabaraba,Papua New Guinea,PG,0
307082,Rumginae Airport,RMN,-5.89722222222,141.271666667,Rumginae,Papua New Guinea,PG,0
308137,Karimui Airport,KMR,-6.4921,144.823,Karimui,Papua New Guinea,PG,0
46169,Kairuku Airport,RKU,-8.817000054,146.5243833,Yule Island,Papua New Guinea,PG,0
313207,Maramuni Airport,MWI,-5.13,143.4829,Maramuni,Papua New Guinea,PG,0
307559,Kakoro(Koroko) Airstrip,KOR,-7.8346666666700004,146.5335,Kakoro,Papua New Guinea,PG,0
311745,May River Airstrip,MRH,-4.3615,141.785,May River,Papua New Guinea,PG,0
307595,Suabi Airport,SBE,-6.10444444444,142.278333333,Suabi,Papua New Guinea,PG,0
307446,Saidor Airport,SDI,-5.62713888889,146.462777778,Saidor,Papua New Guinea,PG,0
307120,Simberi Airport,NIS,-2.66222222222,151.997777778,Simberi Island,Papua New Guinea,PG,0
307121,Safia Airport,SFU,-9.59305555556,148.636111111,Safia,Papua New Guinea,PG,0
307114,Sila Airport,SIL,-9.07355555556,148.38925,Sila Mission,Papua New Guinea,PG,0
312961,Sabah Airport,SBV,-5.5765,155.0489,Sabah,Papua New Guinea,PG,0
307115,Simbai Airport,SIM,-5.278611111110001,144.544722222,Simbai,Papua New Guinea,PG,0
307450,Sengapi Airstrip,SGK,-5.12583333333,144.323611111,Sengapi,Papua New Guinea,PG,0
307449,Sehulea Airport,SXH,-9.96452777778,151.161861111,Sehulea,Papua New Guinea,PG,0
313471,Selbang Airport,SBC,-5.315,141.752,Selbang,Papua New Guinea,PG,0
307447,Sapmanga Airport,SMH,-6.075277777779999,146.811111111,Sapmanga,Papua New Guinea,PG,0
314638,Sepik Plains Airport,SPV,-3.8821,143.6734,Sepik Plains,Papua New Guinea,PG,0
309428,Sasereme Airport,TDS,-7.6217,142.868,Sasereme,Papua New Guinea,PG,0
35191,Suki Airport,SKC,-8.0466,141.7222,Suki,Papua New Guinea,PG,0
315130,Sauren Airport,SXW,-5.9701,148.8543,Sauren,Papua New Guinea,PG,0
307448,Satwag Airport,SWG,-6.13955555556,147.279166667,Satwag,Papua New Guinea,PG,0
313953,Masa Airport,MBV,-6.345,147.591,Masa,Papua New Guinea,PG,0
32451,Tari Airport,TIZ,-5.845,142.947998,Tari,Papua New Guinea,PG,0
32425,Tabubil Airport,TBG,-5.280471,141.227576,Tabubil,Papua New Guinea,PG,0
42765,Telefomin Airport,TFM,-5.12608,141.641922,Telefomin,Papua New Guinea,PG,0
309956,Tetebedi Airport,TDB,-9.1586,148.0686,Tetebedi,Papua New Guinea,PG,0
307191,Tagula Airport,TGL,-11.3311111111,153.202916667,Sudest Island,Papua New Guinea,PG,0
309430,Tifalmin Airport,TFB,-5.117249,141.418076,Tifalmin,Papua New Guinea,PG,0
307594,Tapini Airport,TPI,-8.35666666667,146.989166667,Tapini,Papua New Guinea,PG,0
68,Tokua Airport,RAB,-4.34046,152.380005,Kokopo,Papua New Guinea,PG,0
307593,Tekin Airport,TKW,-5.243667,142.165194,Tekin,Papua New Guinea,PG,0
308208,Kamberatoro Airport,KDQ,-3.600556,141.051667,Kamberatoro Mission,Papua New Guinea,PG,0
309953,Tep Tep Airport,TEP,-5.9553,146.5595,Teptep,Papua New Guinea,PG,0
307197,Tarabo Airport,TBQ,-6.46666666667,145.532222222,Tarabo,Papua New Guinea,PG,0
312313,Tsewi Airport,TSW,-7.0695,146.1272,Tsewi,Papua New Guinea,PG,0
312249,Tarakbits Airport,TRJ,-5.614,141.0421,Tarakbits,Papua New Guinea,PG,0
35192,Tufi Airport,TFI,-9.07595443726,149.319839478,Tufi,Papua New Guinea,PG,0
309377,Timbunke Airport,TBE,-4.196633,143.519222,Timbunke,Papua New Guinea,PG,0
312256,Tawa Airport,TWY,-7.4463,146.1067,Tawa,Papua New Guinea,PG,0
302534,Terapo Airport,TEO,-8.16972222222,146.194444444,Terapo Mission,Papua New Guinea,PG,0
312258,Tekadu Airport,TKB,-7.6808,146.5503,Tekadu,Papua New Guinea,PG,0
312334,Umba Airport,UMC,-7.0214,145.966,Umba,Papua New Guinea,PG,0
312379,Uroubi Airport,URU,-9.5162,148.5591,Uroubi,Papua New Guinea,PG,0
301982,Buin Airport,UBI,-6.72916666667,155.683333333,Buin,Papua New Guinea,PG,0
301737,Aumo Airport,AUV,-5.731111111110001,148.445277778,Aumo,Papua New Guinea,PG,0
309179,Gulgubip Airport,GLP,-5.2808,141.5411,Gulgubip,Papua New Guinea,PG,0
312336,Upiara Airport,UPR,-8.5411,142.6503,Upiara,Papua New Guinea,PG,0
302386,Kuyol Airport,KUX,-5.372361111110001,141.623888889,Kuyol,Papua New Guinea,PG,0
312427,Uvol Airport,UVO,-6.0178,150.9557,Uvol,Papua New Guinea,PG,0
314791,Talasea Airport,TLW,-5.2726,150.0089,Talasea,Papua New Guinea,PG,0
312309,Torembi Airport,TCJ,-4.0165,143.1329,Torembi,Papua New Guinea,PG,0
69,Vanimo Airport,VAI,-2.6926,141.3028,Vanimo,Papua New Guinea,PG,0
312307,Tonu Airport,TON,-6.6552,155.4326,Tonu,Papua New Guinea,PG,0
307311,Wuvulu Island Airport,WUV,-1.73611111111,142.836666667,Wuvulu Island,Papua New Guinea,PG,0
307286,Wabo Airport,WAO,-6.98944444444,145.075111111,Wabo,Papua New Guinea,PG,0
307355,Wantoat Airport,WTT,-6.1325,146.467777778,Wantoat,Papua New Guinea,PG,0
70,Wapenamanda Airport,WBM,-5.635293,143.892231,Wapenamanda,Papua New Guinea,PG,0
316464,Wawoi Falls Airport,WAJ,-6.9523,142.6557,Wavoi Falls,Papua New Guinea,PG,0
301652,Wanigela Airport,AGL,-9.3375,149.155556,Wanigela,Papua New Guinea,PG,0
309968,Wanuma Airport,WNU,-4.8961,145.3213,Wanuma,Papua New Guinea,PG,0
309969,Wapolu Airport,WBC,-9.3376,150.5093,Wapolu,Papua New Guinea,PG,0
71,Wewak International Airport,WWK,-3.58383011818,143.669006348,Wewak,Papua New Guinea,PG,0
307586,Wonenara Airport,WOA,-6.796861111110001,145.891944444,Wonenara,Papua New Guinea,PG,0
320097,Wakunai Airport,WKN,-5.8603,155.2223,Wakunai,Papua New Guinea,PG,0
307291,Wasu Airport,WSU,-5.96170944919,147.19822526,Wasu,Papua New Guinea,PG,0
307247,Woitape Airport,WTP,-8.545833,147.2525,Fatima Mission,Papua New Guinea,PG,0
307290,Wau Airport,WUG,-7.345556,146.718611,Wau,Papua New Guinea,PG,0
311042,Yeva Airport,YVD,-7.548,146.188,Yeva,Papua New Guinea,PG,0
312056,Sim Airport,SMJ,-7.75,146.9273,Sim,Papua New Guinea,PG,0
32459,Tol Airport,TLO,-4.98083019257,152.009994507,Tol,Papua New Guinea,PG,0
35193,Wipim Airport,WPM,-8.78822,142.882004,Wipim,Papua New Guinea,PG,0
316476,Weam Airport,WEP,-8.6184,141.1381,Weam,Papua New Guinea,PG,0
313341,Yalumet Airport,KYX,-6.09,147.0117,Yalumet,Papua New Guinea,PG,0
307585,Yenkis(Yankisa) Airport,YEQ,-5.10972222222,143.917666667,Yenkis(Yankisa),Papua New Guinea,PG,0
309955,Tinboli Airport,TCK,-4.0949,143.3838,Tinboli,Papua New Guinea,PG,0
308283,Munbil Airport,LNF,-4.855941,141.220165,Munbil,Papua New Guinea,PG,0
302215,Oram Airport,RAX,-9.632916666669997,148.048055556,Oram,Papua New Guinea,PG,0
307354,Yapsiei Airport,KPE,-4.6280555555600005,141.094166667,Yapsiei,Papua New Guinea,PG,0
312469,Yasuru Airport,KSX,-6.6015,146.1813,Yasuru,Papua New Guinea,PG,0
307352,Zenag Airport,ZEN,-6.9522222222200005,146.61625,Zenag,Papua New Guinea,PG,0
308106,Silur Airport,SWR,-4.5298888888899995,153.054444444,Silur Mission,Papua New Guinea,PG,0
315022,Wasum Airport,WUM,-6.0491,149.337,Wasum,Papua New Guinea,PG,0
307637,Sissano Airport,SIZ,-2.99944444444,142.0445,Sissano,Papua New Guinea,PG,0
306994,Ossima Airport,OSG,-2.91555555556,141.297305556,Ossima,Papua New Guinea,PG,0
44941,Zabrat Airport,ZXT,40.494884,49.977065,Zabrat,Azerbaijan,AZ,0
301690,Amazon Bay Airport,AZB,-10.2991666667,149.338333333,Amazon,Papua New Guinea,PG,0
301840,Bali Airport,BAJ,-4.8833333333299995,149.133333333,Unea Island,Papua New Guinea,PG,0
27301,Benguera Island Airport,BCW,-21.8533,35.438301,Benguera Island,Mozambique,MZ,0
301872,Milyakburra Airport,BCZ,-13.780833333299999,136.201666667,Bickerton Island,Australia,AU,0
111,Bezmer Air Base,JAM,42.454899,26.3522,Bezmer,Bulgaria,BG,0
31697,Aasiaat Airport,JEG,68.721802,-52.784698,Aasiaat,Greenland,GL,0
113,Narsarsuaq Airport,UAK,61.1605,-45.425999,Narsarsuaq,Greenland,GL,0
30839,Neerlerit Inaat Airport,CNP,70.743103,-22.650499,Neerlerit Inaat,Greenland,GL,0
114,Nuuk International Airport,GOH,64.191066,-51.67914,Nuuk,Greenland,GL,0
31694,Ilulissat Airport,JAV,69.243202,-51.057098,Ilulissat,Greenland,GL,0
31786,Kulusuk Airport,KUS,65.573601,-37.1236,Kulusuk,Greenland,GL,0
31711,Maniitsoq Airport,JSU,65.412498,-52.9394,Maniitsoq,Greenland,GL,0
44065,Paamiut Airport,JFR,62.014736,-49.670937,Paamiut,Greenland,GL,0
32004,Qaanaaq Airport,NAQ,77.488602,-69.388702,Qaanaaq,Greenland,GL,0
115,Kangerlussuaq International Airport,SFJ,67.010446,-50.715294,Kangerlussuaq,Greenland,GL,0
31700,Sisimiut Airport,JHS,66.951302,-53.729301,Sisimiut,Greenland,GL,0
116,Pituffik Space Base,THU,76.53063,-68.700541,Pituffik,Greenland,GL,0
31713,Upernavik Airport,JUV,72.790199,-56.1306,Upernavik,Greenland,GL,0
31709,Qaarsut Airport,JQA,70.7342,-52.696201,Uummannaq,Greenland,GL,0
30705,Bahía de los Ángeles Airport,BHL,28.9786,-113.560997,Ensenada,Mexico,MX,0
302410,Brighton Downs Airport,BHT,-23.363333,141.562778,Brighton Downs,Australia,AU,0
117,Akureyri International Airport,AEY,65.656573,-18.072018,Akureyri,Iceland,IS,0
118,Bildudalur Airport,BIU,65.641296,-23.5462,Bildudalur,Iceland,IS,0
30700,Borgarfjörður eystri Airport,BGJ,65.516769,-13.81578,Borgarfjörður eystri,Iceland,IS,0
30771,Blönduós Airport,BLO,65.644997,-20.2875,Blönduós,Iceland,IS,0
30807,Breiðdalsvík Airport,BXV,64.790037,-14.043927,Breiðdalsvík,Iceland,IS,0
30922,Djúpivogur Airport,DJU,64.642372,-14.277297,Djúpivogur,Iceland,IS,0
119,Egilsstaðir Airport,EGS,65.2833023071289,-14.401399612426758,Egilsstaðir,Iceland,IS,0
31041,Fagurhólsmýri Airport,FAG,63.874699,-16.6411,Fagurhólsmýri,Iceland,IS,0
31559,Grundarfjörður Airport,GUU,64.991402,-23.224701,Grundarfjörður,Iceland,IS,0
31531,Gjögur Airport,GJR,65.9953,-21.3269,Gjögur,Iceland,IS,0
31549,Grímsey Airport,GRY,66.5458,-18.0173,Grímsey/Sandvík,Iceland,IS,0
31656,Hólmavík Airport,HVK,65.704697,-21.6964,Hólmavík,Iceland,IS,0
120,Hornafjörður Airport,HFN,64.295601,-15.2272,Höfn,Iceland,IS,0
121,Húsavík Airport,HZK,65.952301,-17.426001,Húsavík,Iceland,IS,0
122,Ísafjörður Airport,IFJ,66.058098,-23.1353,Ísafjörður,Iceland,IS,0
123,Keflavik International Airport,KEF,63.985001,-22.6056,Reykjavík,Iceland,IS,0
32121,Kópasker Airport,OPA,66.310799,-16.4667,Kópasker,Iceland,IS,0
32246,Sauðárkrókur Airport,SAK,65.73169708249999,-19.572799682599996,Sauðárkrókur,Iceland,IS,0
32044,Norðfjörður Airport,NOR,65.131897,-13.7464,Norðfjörður,Iceland,IS,0
32207,Reykhólar Airport,RHA,65.45262908935547,-22.20611572265625,Reykhólar,Iceland,IS,0
30741,Rif Airport,OLI,64.911377,-23.818205,Rif,Iceland,IS,0
32205,Raufarhöfn Airport,RFN,66.406403,-15.9183,Raufarhöfn,Iceland,IS,0
125,Reykjavík Domestic Airport,RKV,64.128732,-21.93759,Reykjavík,Iceland,IS,0
31973,Mývatn Airport,MVA,65.6558,-16.9181,Myvatn,Iceland,IS,0
126,Siglufjörður Airport,SIJ,66.137847,-18.908157,Siglufjörður,Iceland,IS,0
32415,Stykkishólmur Airport,SYK,65.058851,-22.764616,Stykkishólmur,Iceland,IS,0
32436,Þingeyri Airport,TEY,65.8703,-23.559999,Þingeyri,Iceland,IS,0
127,Þórshöfn Airport,THO,66.218459,-15.334739,Þórshöfn,Iceland,IS,0
128,Vestmannaeyjar Airport,VEY,63.42430114746094,-20.278900146484375,Vestmannaeyjar,Iceland,IS,0
32593,Vopnafjörður Airport,VPN,65.720596,-14.8506,Vopnafjörður,Iceland,IS,0
300790,Baleela Airport,BJE,11.199444444400001,28.5230555556,Baleela Base Camp,Sudan,SD,0
300791,Bahja Airport,BJQ,19.8730555556,56.067777777799996,Bahja,Oman,OM,0
4614,Priština Adem Jashari International Airport,PRN,42.5728,21.035801,Prishtina,Kosovo,XK,0
28482,Bamburi Airport,BMQ,-3.983363,39.730982,Bamburi,Kenya,KE,0
312758,Boana Airport,BNV,-6.426631,146.826697,Boana,Papua New Guinea,PG,0
41590,Baures Airport,BVL,-13.654426,-63.704718,Baures,Bolivia,BO,0
312780,Boang Airport,BOV,-3.3834,153.2812,Boang Island,Papua New Guinea,PG,0
323824,Pedro Vieira Moreira Airport,CJZ,-6.8827,-38.61583,Cajazeiras,Brazil,BR,0
333222,Glauber de Andrade Rocha Airport,VDC,-14.907885,-40.914804,Vitória da Conquista,Brazil,BR,0
340,Santana do Araguaia Airport,CMP,-9.319906,-50.328536,Santana do Araguaia,Brazil,BR,0
38046,Arraias Airport,AAI,-13.025154,-46.884107,Arraias,Brazil,BR,0
129,Tertuliano Guedes de Pinho Airport,ITN,-14.8105,-39.290401,Itabuna,Brazil,BR,0
297,Leopoldina Airport,LEP,-21.468226,-42.727076,Leopoldina,Brazil,BR,0
30848,Cururupu Airport,CPU,-1.820006,-44.864065,Cururupu,Brazil,BR,0
30858,Santa Vitória do Palmar Airport,CTQ,-33.502038,-53.344911,Santa Vitória do Palmar,Brazil,BR,0
37032,Alto Parnaíba Airport,APY,-9.08533,-45.955603,Alto Parnaíba,Brazil,BR,0
37933,Juruena Airport,JRN,-10.314114,-58.494877,Juruena,Brazil,BR,0
38073,Santa Terezinha Airport,STZ,-10.464722,-50.518612,Santa Terezinha,Brazil,BR,0
38113,Vila Bela da Santíssima Trindade Airport,MTG,-14.995499,-59.945662,Vila Bela Da Santíssima Trindade,Brazil,BR,0
30637,Alenquer Municipal Airport,ALT,-1.917,-54.7231,Alenquer,Brazil,BR,0
302396,Besakoa Airport,BSV,-15.6725,47.061667,Besakoa,Madagascar,MG,0
353792,Betong International Airport,BTZ,5.79,101.15,Betong,Thailand,TH,0
31654,Hukuntsi Airport,HUK,-23.9897,21.758101,Hukuntsi,Botswana,BW,0
301800,Bawan Airport,BWJ,-6.396944444440001,146.881666667,Bawan,Papua New Guinea,PG,0
34946,Orsha Airport - Balbasovo Air Base,TXC,54.439999,30.2967,Orsha,Belarus,BY,0
16506,Boundary Airport,BYA,64.077678,-141.122088,Boundary,United States,US,0
302393,Bella Yella Airport,BYL,7.36916666667,-9.99372222222,Beliyela,Liberia,LR,0
44573,Hector Silva Airstrip,BCV,17.269603,-88.776496,Belmopan,Belize,BZ,0
42216,Big Creek Airport,BGK,16.519369,-88.407913,Big Creek,Belize,BZ,0
30861,Caye Caulker Airport,CUK,17.735015,-88.032862,Caye Caulker,Belize,BZ,0
30867,Caye Chapel Airport,CYC,17.683792,-88.044985,Caye Chapel,Belize,BZ,0
42209,Corozal Airport,CZH,18.3822,-88.411903,Corozal,Belize,BZ,0
42207,Dangriga Airport,DGA,16.98251,-88.230988,Dangriga,Belize,BZ,0
42213,Independence Airport,INB,16.53456,-88.441615,Independence,Belize,BZ,0
42214,Melinda Airport,MDB,17.004299,-88.304199,Melinda,Belize,BZ,0
42212,H.E Alfredo Martinez (Tower Hill) Airstrip,ORZ,18.046767,-88.583858,Orange Walk,Belize,BZ,0
35305,Punta Gorda Airport,PND,16.1024,-88.808296,Punta Gorda,Belize,BZ,0
42210,Sartaneja Airport,SJX,18.3561,-88.130798,Sartaneja,Belize,BZ,0
32370,John Greif II Airport,SPR,17.9139,-87.9711,San Pedro,Belize,BZ,0
42218,Matthew Spain Airport,SQS,17.185898,-89.009936,Spanish Lookout,Belize,BZ,0
42211,Santa Cruz Airport,STU,18.2721004486084,-88.456298828125,Santa Cruz,Belize,BZ,0
42208,Silver Creek Airport,SVK,16.728338,-88.369174,Silver Creek,Belize,BZ,0
42215,Sir Barry Bowen Municipal Airport,TZA,17.517239,-88.195775,Belize City,Belize,BZ,0
27300,Bazaruto Island Airport,BZB,-21.5411,35.4729,Bazaruto Island,Mozambique,MZ,0
302391,Bemolanga Airport,BZM,-17.6925,45.0888333333,Bemolanga,Madagascar,MG,0
39943,Primrose Airport,PFM,55.390002,-111.1198,Primrose,Canada,CA,0
39968,Saglek Airport,YSV,58.474312,-62.653999,Saglek,Canada,CA,0
298628,Stuart Island Airstrip,YRR,50.409447,-125.131617,Big Bay,Canada,CA,0
299911,Mary River Aerodrome,YMV,71.324167,-79.356944,Mary River,Canada,CA,0
20291,Paradise Skypark Airport,PYS,39.71029,-121.616528,Paradise,United States,US,0
614,Trail Regional Airport,YZZ,49.055599,-117.609001,Trail,Canada,CA,0
615,Merritt Airport,YMB,50.122504,-120.745368,Merritt,Canada,CA,0
619,Chilko Lake (Tsylos Park Lodge) Airport,CJH,51.625797,-124.144478,Chilko Lake,Canada,CA,0
620,Courtenay Airpark,YCA,49.679237,-124.98064,Courtenay,Canada,CA,0
623,Creston Valley Regional Airport - Art Sutcliffe Field,CFQ,49.03689956665,-116.49800109863,Creston,Canada,CA,0
624,Anahim Lake Airport,YAA,52.451501,-125.303776,Anahim Lake,Canada,CA,0
629,Douglas Lake Airport,DGF,50.1654600485,-120.171273351,Douglas Lake,Canada,CA,0
30592,Fort MacKay/Albian Aerodrome,JHL,57.223899841299996,-111.418998718,Albian Village,Canada,CA,0
631,Duncan Airport,DUQ,48.754534,-123.709702,Duncan,Canada,CA,0
634,Sechelt-Gibsons Airport,YHS,49.460601806599996,-123.71900177,Sechelt,Canada,CA,0
643,Qualicum Beach Airport,XQU,49.337456,-124.393086,Qualicum Beach,Canada,CA,0
644,Port McNeill Airport,YMP,50.57348,-127.027702,Port McNeill,Canada,CA,0
657,Cache Creek-Ashcroft Regional Airport,YZA,50.775258,-121.321314,Cache Creek,Canada,CA,0
664,Bella Bella (Campbell Island) Airport,ZEL,52.185001,-128.156994,Bella Bella,Canada,CA,0
301825,Cherrabun Airport,CBC,-18.917777777800005,125.537777778,Cherrabun,Australia,AU,0
717,Alberni Valley Regional Airport,YPB,49.321899,-124.931,Port Alberni,Canada,CA,0
731,Bob Quinn Lake Airport,YBO,56.966702,-130.25,Bob Quinn Lake,Canada,CA,0
736,Tungsten (Cantung) Airport,TNS,61.956901550293,-128.20300292969,Tungsten,Canada,CA,0
737,Tumbler Ridge Airport,TUX,55.025001525879,-120.93499755859,Tumbler Ridge,Canada,CA,0
743,Williams Harbour Airport,YWM,52.567377,-55.784883,Williams Harbour,Canada,CA,0
750,Postville Airport,YSO,54.9105,-59.78507,Postville,Canada,CA,0
752,Black Tickle Airport,YBI,53.469836,-55.787501,Black Tickle,Canada,CA,0
758,Charlottetown Airport,YHG,52.765774,-56.11237,Charlottetown,Canada,CA,0
764,St. Lewis (Fox Harbour) Airport,YFX,52.372799,-55.673901,St. Lewis,Canada,CA,0
771,Port Hope Simpson Airport,YHA,52.528099060058594,-56.28609848022461,Port Hope Simpson,Canada,CA,0
793,Rigolet Airport,YRG,54.1796989440918,-58.45750045776367,Rigolet,Canada,CA,0
511665,Kasongo-Lunda Airport,KGN,-6.468027,16.805012,Kasongo-Lunda,Democratic Republic of the Congo,CD,0
814,Diavik Airport,DVK,64.5113983154,-110.289001465,Diavik,Canada,CA,0
43879,Doris Lake,JOJ,68.1252746582,-106.585281372,Hope Bay,Canada,CA,0
834,Fairview Airport,ZFW,56.081401825,-118.434997559,Fairview,Canada,CA,0
836,Jasper-Hinton Airport,YJP,53.319199,-117.752998,Hinton,Canada,CA,0
874,Whatì Airport,YLE,63.13169860839844,-117.24600219726562,Whatì,Canada,CA,0
892,Drayton Valley Industrial Airport,YDC,53.265800476074,-114.95999908447,Drayton Valley,Canada,CA,0
893,Fort McMurray / Mildred Lake Airport,NML,57.0555992126,-111.573997498,Fort McMurray,Canada,CA,0
898,Conklin (Leismer) Airport,CFM,55.695301,-111.278999,Conklin,Canada,CA,0
506976,Kavadja Airport,KWD,7.964938,23.526018,Kavadja,Central African Republic,CF,0
925,Taltheilei Narrows Airport,GSL,62.5980987549,-111.542999268,Taltheilei Narrows,Canada,CA,0
933,Macmillan Pass Airport,XMP,63.181098938,-130.20199585,Macmillan Pass,Canada,CA,0
944,Great Bear Lake Airport,DAS,66.703053,-119.716816,Great Bear Lake,Canada,CA,0
46534,Fort Mackay / Firebag,YFI,57.275833,-110.976666,Suncor Energy Site,Canada,CA,0
964,Donnelly Airport,YOE,55.7094,-117.094002,Donnelly,Canada,CA,0
982,Cheadle Airport,TIL,51.057498931885,-113.62400054932,Cheadle,Canada,CA,0
32110,Okoyo Airport,OKG,-1.4483300447464,15.073300361633,Okoyo,Republic of the Congo,CG,0
312504,Casiguran Airport,CGG,16.1941,122.0651,Casiguran,Philippines,PH,0
44373,Gahcho Kue,GHK,63.435198,-109.144812,Kennedy Lake,Canada,CA,0
16713,Circle Hot Springs Airport,CHP,65.485496521,-144.610992432,Circle Hot Springs,United States,US,0
1058,Laurie River Airport,LRQ,56.2486000061,-101.304000854,Laurie River,Canada,CA,0
1088,Hatchet Lake Airport,YDJ,58.662498474121,-103.53800201416,Hatchet Lake,Canada,CA,0
1092,Kasba Lake Airport,YDU,60.291900634766,-102.50199890137,Kasba Lake,Canada,CA,0
1121,Cluff Lake Airport,XCL,58.3911018372,-109.51599884,Cluff Lake,Canada,CA,0
1126,Knee Lake Airport,YKE,54.915298,-94.798103,Knee Lake,Canada,CA,0
1139,Summer Beaver Airport,SUR,52.70859909057617,-88.54190063476562,Summer Beaver,Canada,CA,0
16716,Crooked Creek Airport,CKD,61.870315,-158.137636,Crooked Creek,United States,US,0
1151,Tisdale Airport,YTT,52.836700439453,-104.06700134277,Tisdale,Canada,CA,0
1162,Wapekeka Airport,YAX,53.84920120239258,-89.57939910888672,Angling Lake,Canada,CA,0
1200,Wunnumin Lake Airport,WNN,52.893902,-89.2892,Wunnumin Lake,Canada,CA,0
1211,Opapimiskan Lake Airport,YBS,52.6067008972,-90.3768997192,Opapimiskan Lake,Canada,CA,0
1218,North Spirit Lake Airport,YNO,52.4900016784668,-92.97109985351562,North Spirit Lake,Canada,CA,0
312535,Crane Island Airstrip,CKR,48.5978,-122.9979,Crane Island,United States,US,0
16717,Cordova Municipal Airport,CKU,60.5438995361,-145.727005005,Cordova,United States,US,0
1244,North of Sixty Airport,YDW,60.315719,-103.131324,Obre Lake,Canada,CA,0
16718,Chicken Airport,CKX,64.066495,-141.951342,Chicken,United States,US,0
316486,New Cametá Airport,CMT,-2.2468,-49.56,Cametá,Brazil,BR,0
311902,Caia Airport,CMZ,-17.8331,35.3341,Caia,Mozambique,MZ,0
323879,Zigong Fengming Airport,ZKL,29.376484,104.625789,Zigong (Gongjing),China,CN,0
323881,Bazhong Enyang Airport,BZX,31.73842,106.644872,Bazhong,China,CN,0
324348,Shangluo Airport,DFA,33.708533,110.249284,Shangluo (Danfeng),China,CN,0
44157,Shaoguan Danxia Airport,HSC,24.9786,113.420998,Shaoguan,China,CN,0
44159,Jinggangshan Airport,JGS,26.856899,114.737,Ji'an,China,CN,0
44232,Jiaxing Nanhu Airport,JNH,30.698056,120.663056,"Xiuzhou, Hangzhou",China,CN,0
342426,Morin Dawa Banner Airport,DWS,48.38745,124.43127,Hulunbuir,China,CN,0
348149,Shijiazhuang Luancheng Airport,LCT,37.91305,114.59166,Shijiazhuang,China,CN,0
348150,Wuhan Hannan Municipal Airport,WHN,30.25521,114.062805,Wuhan (Hannan),China,CN,0
44271,Harbin Pingfang Airport,PFA,45.59886,126.65808,Harbin,China,CN,0
348689,Penglai Shahekou Airport,PNJ,37.80473,120.80954,Yantai,China,CN,0
348690,Binzhou Dagao General Aviation Airport,CBZ,37.61055,117.885699,Binzhou,China,CN,0
350882,Rikaze Dingri Airport,DDR,28.604567,86.798,Xigazê (Dingri),China,CN,0
350883,Tashikuergan Hongqilafu Airport,HQL,37.661333,75.288877,Tashikuergan,China,CN,0
350886,Dongyang Hengdian General Airport,HEW,29.122619,120.24289,Jinhua (Dongyang),China,CN,0
350949,Jiande Qiandaohu General Airport,JDE,29.360905,119.180829,Hangzhou,China,CN,0
350965,Zhaodong Beidahuang General Airport,HLJ,46.12779,125.77354,Suihua,China,CN,0
352226,Taiyuan Yaocheng Airport,TYC,37.50312,112.424126,Taiyuan,China,CN,0
354507,Wuerhe Airport,WRH,46.01761,85.657436,Orku,China,CN,0
354722,Ganzhou Ruijin Airport,JRJ,25.960236,116.077016,Ganzhou,China,CN,0
355511,Ali Pulan Airport,APJ,30.397898,81.13317,Burang Town,China,CN,0
355952,Zhaosu Tianma Airport,ZFL,43.088477,81.223013,Zhaosu,China,CN,0
355963,Yinchuan Yueyahu Airport,YEH,38.588095,106.539788,Yinchuan,China,CN,0
430023,Longchuan Guangsong Airport,LCS,24.26652,97.9048,Dehong (Longchuan),China,CN,0
430024,Lanping Fenghua General Airport,LFH,26.64518,99.54419,Lanping Bai,China,CN,0
525151,Bozhou Airport (under construction),BZJ,33.560777,115.911859,Bozhou,China,CN,0
525152,Bailing Airport,BKV,41.656944,110.3125,Bailingmiao,China,CN,0
525153,Hejing Bayinbuluke Airport,HJB,42.976395,83.995543,Hejing,China,CN,0
525160,Otog Front Banner Oljoq Airport,OTQ,38.1712,107.3905,Otog Front Banner,China,CN,0
525757,Qitai Jiangbulake Airport,JBK,44.166086,89.55014,Qitai,China,CN,0
525773,Zhaotong Zhaoyang Airport,ZAT,27.205843,103.691511,Zhaotong,China,CN,0
525774,Lishui Airport,LIJ,28.3727,119.839,Lishui (Liandu),China,CN,0
525775,Nanchang Yaohu Airport,YHJ,28.700972,116.107694,Nanchang,China,CN,0
548188,Otog Banner Wulan Airport,OTO,39.03139,107.98889,Wulan,China,CN,0
44093,Beijing Nanyuan Airport,NAY,39.782158,116.386299,Beijing,China,CN,0
598595,Bengbu Tenghu Airport,BFY,33.166389,117.058333,Bengbu,China,CN,0
1299,Bearskin Lake Airport,XBE,53.965599060058594,-91.0271987915039,Bearskin Lake,Canada,CA,0
1308,Natuashish Airport,YNP,55.913898,-61.184399,Natuashish,Canada,CA,0
1314,Parry Sound Area Municipal Airport,YPD,45.2575,-79.829697,Parry Sound,Canada,CA,0
1317,Brockville - Thousand Islands Regional Tackaberry Airport,XBR,44.6394004822,-75.7502975464,Brockville,Canada,CA,0
1324,Kingfisher Lake Airport,KIF,53.01250076293945,-89.85530090332031,Kingfisher Lake,Canada,CA,0
41597,Virgilio Barco Vargas (La Chorrera) Airport,LCR,-1.456361,-72.801086,La Chorrera,Colombia,CO,0
1401,Bar River Airport,YEB,46.421233,-84.096478,Echo Bay,Canada,CA,0
302208,Cape Orford Airport,CPI,-5.44833333333,152.081944444,Cape,Papua New Guinea,PG,0
1466,Keewaywin Airport,KEW,52.9911,-92.836403,Keewaywin,Canada,CA,0
519426,Cóbano Airport,ACO,9.693365,-85.091216,Cóbano,Costa Rica,CR,0
1492,Kirby Lake Airport,KFM,55.355598,-110.637001,Kirby Lake,Canada,CA,0
44427,Sable Island Airport.,YSA,43.928235,-59.948986,Sable Island,Canada,CA,0
1521,Lebel-sur-Quevillon Airport,YLS,49.0303001404,-77.0171966553,Lebel-sur-Quévillon,Canada,CA,0
1531,Snap Lake Airport,YNX,63.593601,-110.905998,Snap Lake Mine,Canada,CA,0
1556,La Sarre Airport,SSQ,48.917198181152,-79.178596496582,La Sarre,Canada,CA,0
1563,Chisasibi Airport,YKU,53.805599212646484,-78.91690063476562,Chisasibi,Canada,CA,0
1590,Tête-à-la-Baleine Airport,ZTB,50.674400329589844,-59.38359832763672,Tête-à-la-Baleine,Canada,CA,0
1604,Kégashka Airport,ZKG,50.195801,-61.2658,Côte-Nord-du-Golfe-du-Saint-Laurent,Canada,CA,0
37052,Carutapera Airport,CTP,-1.225365,-46.019057,Carutapera,Brazil,BR,0
1608,Donaldson Airport,YAU,61.662201,-73.321404,Kattiniq,Canada,CA,0
1617,La Romaine Airport,ZGS,50.259553,-60.674357,Le Golfe-du-Saint-Laurent,Canada,CA,0
1618,Fontanges Airport,YFG,54.553901672363,-71.173301696777,Fontanges,Canada,CA,0
1619,La Tabatière Airport,ZLT,50.8307991027832,-58.97560119628906,La Tabatière,Canada,CA,0
316499,Culion Airport,CUJ,11.8553,119.9378,Culion,Philippines,PH,0
302209,Cape Vogel Airport,CVL,-9.67,150.019722222,Cape,Papua New Guinea,PG,0
17055,Chitina Airport,CXC,61.582901,-144.427002,Chitina,United States,US,0
46596,Arctic Bay Airport,YAB,73.006101,-85.04616,Arctic Bay,Canada,CA,0
1652,Cat Lake Airport,YAC,51.7272,-91.824402,Cat Lake,Canada,CA,0
1653,La Grande-3 Airport,YAR,53.5717010498,-76.19640350339999,La Grande-3,Canada,CA,0
1654,Fort Frances Municipal Airport,YAG,48.655749,-93.44349,Fort Frances,Canada,CA,0
1655,La Grande-4 Airport,YAH,53.754699707,-73.6753005981,La Grande-4,Canada,CA,0
1656,Alert Bay Airport,YAL,50.582199,-126.916,Alert Bay,Canada,CA,0
1657,Sault Ste Marie Airport,YAM,46.483216,-84.508467,Sault Ste Marie,Canada,CA,0
1658,Kasabonika Airport,XKS,53.52470016479492,-88.6427993774414,Kasabonika,Canada,CA,0
1659,Kangirsuk Airport,YKG,60.027199,-69.999199,Kangirsuk,Canada,CA,0
1660,Attawapiskat Airport,YAT,52.927502,-82.4319,Attawapiskat,Canada,CA,0
1665,St. Anthony Airport,YAY,51.391909,-56.08321,St. Anthony,Canada,CA,0
1666,Tofino / Long Beach Airport,YAZ,49.079833,-125.775583,Tofino,Canada,CA,0
1667,Banff Airport,YBA,51.208222,-115.540624,Banff,Canada,CA,0
1668,Kugaaruk Airport,YBB,68.535711,-89.805508,Kugaaruk,Canada,CA,0
1669,Baie-Comeau Airport,YBC,49.1325,-68.204399,Baie-Comeau,Canada,CA,0
1670,Bella Coola Airport,QBC,52.387501,-126.596001,Bella Coola,Canada,CA,0
1671,Uranium City Airport,YBE,59.561401,-108.481003,Uranium City,Canada,CA,0
1672,Bonnyville Airport,YBY,54.304199,-110.744003,Bonnyville,Canada,CA,0
1673,Saguenay-Bagotville Airport,YBG,48.330123,-70.992012,Saguenay,Canada,CA,0
1674,Baker Lake Airport,YBK,64.29889678960001,-96.077796936,Baker Lake,Canada,CA,0
1675,Campbell River Airport,YBL,49.950802,-125.271004,Campbell River,Canada,CA,0
1677,Tadoule Lake Airport,XTL,58.706308,-98.511057,Tadoule Lake,Canada,CA,0
1678,Brandon Municipal Airport,YBR,49.91,-99.951897,Brandon,Canada,CA,0
1679,Brochet Airport,YBT,57.8894,-101.679001,Brochet,Canada,CA,0
1681,Berens River Airport,YBV,52.358898,-97.018303,Berens River,Canada,CA,0
1683,Lourdes-de-Blanc-Sablon Airport,YBX,51.4436,-57.185299,Blanc-Sablon,Canada,CA,0
1684,Cartwright Airport,YRF,53.682501,-57.042303,Cartwright,Canada,CA,0
1685,Cambridge Bay Airport,YCB,69.1081008911,-105.138000488,Cambridge Bay,Canada,CA,0
1686,Cornwall Regional Airport,YCC,45.092637,-74.567724,Cornwall,Canada,CA,0
1687,Nanaimo Airport,YCD,49.05497,-123.869863,Nanaimo,Canada,CA,0
1688,Centralia / James T. Field Memorial Aerodrome,YCE,43.285599,-81.508301,Huron Park,Canada,CA,0
1689,Castlegar/West Kootenay Regional Airport,YCG,49.296398,-117.632004,Castlegar,Canada,CA,0
1690,Miramichi Airport,YCH,47.007801,-65.449203,Miramichi,Canada,CA,0
1364,Chatham Kent Airport,XCM,42.3064002991,-82.0819015503,Chatham-Kent,Canada,CA,0
1691,Charlo Airport,YCL,47.990799,-66.330299,Charlo,Canada,CA,0
1692,Cochrane Airport,YCN,49.10559844970703,-81.01360321044922,Cochrane,Canada,CA,0
1693,Kugluktuk Airport,YCO,67.816408,-115.14307,Kugluktuk,Canada,CA,0
1695,Chetwynd Airport,YCQ,55.687198638916016,-121.62699890136719,Chetwynd,Canada,CA,0
1696,Cross Lake (Charlie Sinclair Memorial) Airport,YCR,54.609758,-97.762442,Cross Lake,Canada,CA,0
1697,Chesterfield Inlet Airport,YCS,63.346901,-90.731102,Chesterfield Inlet,Canada,CA,0
1698,Coronation Airport,YCT,52.0750007629,-111.444999695,Coronation,Canada,CA,0
1699,Chilliwack Airport,YCW,49.153157,-121.939309,Chilliwack,Canada,CA,0
1701,Clyde River Airport,YCY,70.486099,-68.516701,Clyde River,Canada,CA,0
1702,Fairmont Hot Springs Airport,YCZ,50.331052,-115.873739,Fairmont Hot Springs,Canada,CA,0
1703,Dawson City Airport,YDA,64.04309844970703,-139.1280059814453,Dawson City,Canada,CA,0
1704,Burwash Airport,YDB,61.371101,-139.041,Burwash Landing,Canada,CA,0
1706,Deer Lake Airport,YDF,49.208159,-57.396147,Deer Lake,Canada,CA,0
1708,Dease Lake Airport,YDL,58.422199,-130.031998,Dease Lake,Canada,CA,0
1709,Ross River Airport,XRR,61.9706001282,-132.42300415,Ross River,Canada,CA,0
1710,Dauphin Barker Airport,YDN,51.1008,-100.052002,Dauphin,Canada,CA,0
1711,Dolbeau-Saint-Felicien Airport,YDO,48.7785,-72.375,Dolbeau-Saint-Felicien,Canada,CA,0
1712,Nain Airport,YDP,56.550778,-61.682224,Nain,Canada,CA,0
1713,Dawson Creek Airport,YDQ,55.741245,-120.183263,Dawson Creek,Canada,CA,0
1717,Edmonton International Airport,YEG,53.3097,-113.580002,Edmonton,Canada,CA,0
1718,Arviat Airport,YEK,61.0942,-94.070801,Arviat,Canada,CA,0
1719,Elliot Lake Municipal Airport,YEL,46.351398468,-82.5614013672,Elliot Lake,Canada,CA,0
1720,Manitoulin East Municipal Airport,YEM,45.842435,-81.857595,Sheguiandah,Canada,CA,0
1721,Estevan Airport,YEN,49.2103004456,-102.966003418,Estevan,Canada,CA,0
1722,Fort Severn Airport,YER,56.018902,-87.676102,Fort Severn,Canada,CA,0
1724,Edson Airport,YET,53.578899383499994,-116.464996338,Edson,Canada,CA,0
1725,Eureka Airport,YEU,79.9946975708,-85.814201355,Eureka,Canada,CA,0
1726,Inuvik Mike Zubko Airport,YEV,68.30419921880001,-133.483001709,Inuvik,Canada,CA,0
1727,Amos/Magny Airport,YEY,48.563903,-78.249702,Amos,Canada,CA,0
1728,Fort Albany Airport,YFA,52.203451,-81.695194,Fort Albany,Canada,CA,0
1729,Iqaluit Airport,YFB,63.756402,-68.555801,Iqaluit,Canada,CA,0
1730,Fredericton International Airport,YFC,45.868697,-66.529891,Fredericton,Canada,CA,0
1732,Forestville Airport,YFE,48.74610137939453,-69.09719848632812,Forestville,Canada,CA,0
1733,Fort Hope Airport,YFH,51.561901,-87.907799,Fort Hope,Canada,CA,0
1734,Mont-Tremblant International Airport,YTM,46.409401,-74.779999,La Macaza,Canada,CA,0
1735,Flin Flon Airport,YFO,54.678101,-101.681999,Flin Flon,Canada,CA,0
1736,Fort Resolution Airport,YFR,61.1808013916,-113.690002441,Fort Resolution,Canada,CA,0
1737,Fort Simpson Airport,YFS,61.76020050048828,-121.23699951171875,Fort Simpson,Canada,CA,0
1738,Makkovik Airport,YMN,55.077335,-59.187942,Makkovik,Canada,CA,0
1739,Texada Gillies Bay Airport,YGB,49.694341,-124.518099,Texada,Canada,CA,0
1742,Fort Good Hope Airport,YGH,66.240658,-128.647757,Fort Good Hope,Canada,CA,0
1743,Kingston Norman Rogers Airport,YGK,44.2253,-76.596901,Kingston,Canada,CA,0
1744,La Grande Rivière Airport,YGL,53.625301361083984,-77.7042007446289,La Grande Rivière,Canada,CA,0
1745,Gimli Industrial Park Airport,YGM,50.62810134887695,-97.04329681396484,Gimli,Canada,CA,0
1746,Gods Lake Narrows Airport,YGO,54.55768,-94.490061,Gods Lake Narrows,Canada,CA,0
1747,Michel-Pouliot Gaspé Airport,YGP,48.774915,-64.481893,Gaspé,Canada,CA,0
1748,Geraldton Greenstone Regional Airport,YGQ,49.77830123901367,-86.93939971923828,Geraldton,Canada,CA,0
1749,Îles-de-la-Madeleine Airport,YGR,47.425242,-61.778612,Les Îles-de-la-Madeleine,Canada,CA,0
1750,Igloolik Airport,YGT,69.3647,-81.816101,Igloolik,Canada,CA,0
1751,Havre-Saint-Pierre Airport,YGV,50.281898,-63.611401,Havre-Saint-Pierre,Canada,CA,0
1752,Kuujjuarapik Airport,YGW,55.281898498535156,-77.76529693603516,Kuujjuarapik,Canada,CA,0
1753,Gillam Airport,YGX,56.35712,-94.711504,Gillam,Canada,CA,0
1754,Grise Fiord Airport,YGZ,76.425823,-82.908583,Grise Fiord,Canada,CA,0
1755,Quaqtaq Airport,YQC,61.046398,-69.617798,Quaqtaq,Canada,CA,0
1756,Hudson Bay Airport,YHB,52.8166999817,-102.310997009,Hudson Bay,Canada,CA,0
1757,Dryden Regional Airport,YHD,49.831699,-92.744202,Dryden,Canada,CA,0
1758,Hope Airport / FVRD Regional Airpark,YHE,49.368865,-121.49495,Hope,Canada,CA,0
1759,Hearst René Fontaine Municipal Airport,YHF,49.71419906616211,-83.68609619140625,Hearst,Canada,CA,0
1760,Nemiscau Airport,YNS,51.691101,-76.135597,Nemiscau,Canada,CA,0
1761,Ulukhaktok Holman Airport,YHI,70.762802,-117.806,Ulukhaktok,Canada,CA,0
1762,Gjoa Haven Airport,YHK,68.635597,-95.849701,Gjoa Haven,Canada,CA,0
1763,John C. Munro Hamilton International Airport,YHM,43.17348,-79.931185,Hamilton,Canada,CA,0
1764,Hornepayne Municipal Airport,YHN,49.19309997558594,-84.75890350341797,Hornepayne,Canada,CA,0
1765,Hopedale Airport,YHO,55.448757,-60.228124,Hopedale,Canada,CA,0
1465,Poplar Hill Airport,YHP,52.1133,-94.2556,Poplar Hill,Canada,CA,0
1766,Chevery Airport,YHR,50.468322,-59.637823,Chevery,Canada,CA,0
1767,Haines Junction Airport,YHT,60.7892,-137.546005,Haines Junction,Canada,CA,0
1768,Montréal / Saint-Hubert Metropolitan Airport,YHU,45.517502,-73.416901,Montréal,Canada,CA,0
1769,Hay River / Merlyn Carter Airport,YHY,60.8396987915,-115.782997131,Hay River,Canada,CA,0
1770,Halifax / Stanfield International Airport,YHZ,44.8807983398,-63.5085983276,Halifax,Canada,CA,0
1771,Atikokan Municipal Airport,YIB,48.773899,-91.638603,Atikokan,Canada,CA,0
1772,Digby / Annapolis Regional Airport,YDG,44.5458450365,-65.7854247093,Digby,Canada,CA,0
1773,St Augustin Airport,YIF,51.2117,-58.658298,St-Augustin,Canada,CA,0
1774,Ivujivik Airport,YIK,62.417301,-77.925301,Ivujivik,Canada,CA,0
1775,Pond Inlet Airport,YIO,72.689494,-77.968941,Pond Inlet,Canada,CA,0
1776,Island Lake Airport,YIV,53.857200622558594,-94.65360260009766,Island Lake,Canada,CA,0
1777,Jasper Airport,YJA,52.996418,-118.060233,Jasper,Canada,CA,0
1778,Fort Liard Airport,YJF,60.235801696799996,-123.46900177,Fort Liard,Canada,CA,0
1780,St Jean Airport,YJN,45.29439926147461,-73.28109741210938,St Jean,Canada,CA,0
1783,Stephenville Dymond International Airport,YJT,48.54339,-58.552892,Stephenville,Canada,CA,0
1784,Kamloops John Moose Fulton Field Regional Airport,YKA,50.703038,-120.448641,Kamloops,Canada,CA,0
1785,Collins Bay Airport,YKC,58.236099243199995,-103.678001404,Collins Bay,Canada,CA,0
1786,Aklavik/Freddie Carmichael Airport,LAK,68.223297,-135.00599,Aklavik,Canada,CA,0
1787,Region of Waterloo International Airport,YKF,43.4608,-80.378601,Breslau,Canada,CA,0
1788,Kangiqsujuaq (Wakeham Bay) Airport,YWB,61.5886,-71.929398,Kangiqsujuaq,Canada,CA,0
1789,Key Lake Airport,YKJ,57.256099700927734,-105.61799621582031,Key Lake,Canada,CA,0
1790,Schefferville Airport,YKL,54.805301666259766,-66.8052978515625,Schefferville,Canada,CA,0
1340,Kincardine Municipal Airport,YKD,44.201401,-81.606697,Kincardine,Canada,CA,0
1791,Akulivik Airport,AKV,60.8186,-78.148598,Akulivik,Canada,CA,0
1343,Ogoki Post Airport,YOG,51.6585998535,-85.9017028809,Ogoki Post,Canada,CA,0
1792,Waskaganish Airport,YKQ,51.473301,-78.758301,Waskaganish,Canada,CA,0
1793,Kirkland Lake Airport,YKX,48.21030044555664,-79.98139953613281,Kirkland Lake,Canada,CA,0
1794,Kindersley Airport,YKY,51.5175018311,-109.180999756,Kindersley,Canada,CA,0
1796,Aupaluk Airport,YPJ,59.2967,-69.599701,Aupaluk,Canada,CA,0
1797,Lac La Biche Airport,YLB,54.7703018188,-112.031997681,Lac La Biche,Canada,CA,0
1798,Kimmirut Airport,YLC,62.848253,-69.877853,Kimmirut,Canada,CA,0
1799,Chapleau Airport,YLD,47.81999969482422,-83.3467025756836,Chapleau,Canada,CA,0
1800,Lansdowne House Airport,YLH,52.195599,-87.934196,Lansdowne House,Canada,CA,0
1801,Meadow Lake Airport,YLJ,54.125301361083984,-108.52300262451172,Meadow Lake,Canada,CA,0
1802,Lutselk'e Airport,YSG,62.417823,-110.682793,Lutselk'e,Canada,CA,0
1803,Lloydminster Airport,YLL,53.3092,-110.072998,Lloydminster,Canada,CA,0
1804,La Tuque Airport,YLQ,47.4096984863,-72.7889022827,La Tuque,Canada,CA,0
1805,Leaf Rapids Airport,YLR,56.513301849365234,-99.98529815673828,Leaf Rapids,Canada,CA,0
1293,Barrie-Lake Simcoe Regional Airport,YLK,44.485056,-79.554663,Barrie,Canada,CA,0
1806,Alert Airport,YLT,82.517263,-62.283037,Alert,Canada,CA,0
1807,Kangiqsualujjuaq (Georges River) Airport,XGR,58.711399,-65.992798,Kangiqsualujjuaq,Canada,CA,0
1808,Kelowna International Airport,YLW,49.9561,-119.377998,Kelowna,Canada,CA,0
1809,Mayo Airport,YMA,63.61640167236328,-135.8679962158203,Mayo,Canada,CA,0
1810,Matane Airport,YME,48.85689926147461,-67.45330047607422,Matane,Canada,CA,0
1811,Manitouwadge Airport,YMG,49.083900451660156,-85.86060333251953,Manitouwadge,Canada,CA,0
1812,Mary's Harbour Airport,YMH,52.302837,-55.847433,Mary's Harbour,Canada,CA,0
1813,Moose Jaw Air Vice Marshal C. M. McEwen Airport,YMJ,50.330299377441406,-105.55899810791016,Moose Jaw,Canada,CA,0
1814,Charlevoix Airport,YML,47.59749984741211,-70.2238998413086,Charlevoix,Canada,CA,0
1815,Fort McMurray International Airport,YMM,56.653301,-111.222,Fort McMurray,Canada,CA,0
1816,Moosonee Airport,YMO,51.291099548339844,-80.60780334472656,Moosonee,Canada,CA,0
1817,Chapais Airport,YMT,49.77190017700195,-74.5280990600586,Chibougamau,Canada,CA,0
1818,Umiujaq Airport,YUD,56.536098,-76.518303,Umiujaq,Canada,CA,0
1819,Maniwaki Airport,YMW,46.2728,-75.990601,Messines,Canada,CA,0
1820,Montreal Mirabel International Airport,YMX,45.679501,-74.038696,Montréal,Canada,CA,0
1822,Natashquan Airport,YNA,50.190114,-61.78898,Natashquan,Canada,CA,0
1823,Wemindji Airport,YNC,53.010601,-78.8311,Wemindji,Canada,CA,0
1824,Ottawa / Gatineau Airport,YND,45.521702,-75.563599,Gatineau,Canada,CA,0
1825,Norway House Airport,YNE,53.958302,-97.8442,Norway House,Canada,CA,0
1826,Hudson's Hope Airport,YNH,56.035142,-121.978326,Hudson's Hope,Canada,CA,0
1827,Langley Airport,YLY,49.1008,-122.630997,Langley,Canada,CA,0
1828,Points North Landing Airport,YNL,58.27669906616211,-104.08200073242188,Points North Landing,Canada,CA,0
1829,Matagami Airport,YNM,49.76169967651367,-77.80280303955078,Matagami,Canada,CA,0
1831,Fort Mackay / Horizon Airport,HZP,57.381699,-111.700996,Fort Mackay,Canada,CA,0
1832,Ekati Airport,YOA,64.6988983154,-110.614997864,Ekati,Canada,CA,0
1833,Old Crow Airport,YOC,67.570602,-139.839005,Old Crow,Canada,CA,0
1834,CFB Cold Lake,YOD,54.404998779296875,-110.27899932861328,Cold Lake,Canada,CA,0
1835,Oxford House Airport,YOH,54.9333,-95.2789,Oxford House,Canada,CA,0
1836,High Level Airport,YOJ,58.62139892578125,-117.16500091552734,High Level,Canada,CA,0
1837,Oshawa Executive Airport,YOO,43.922798,-78.894997,Oshawa,Canada,CA,0
1838,Rainbow Lake Airport,YOP,58.491402,-119.407997,Rainbow Lake,Canada,CA,0
1839,Owen Sound / Billy Bishop Regional Airport,YOS,44.5903015137,-80.8375015259,Owen Sound,Canada,CA,0
1840,Ottawa Macdonald-Cartier International Airport,YOW,45.322498,-75.669197,Ottawa,Canada,CA,0
1842,Prince Albert Glass Field,YPA,53.214199066199996,-105.672996521,Prince Albert,Canada,CA,0
1843,Paulatuk (Nora Aliqatchialuk Ruben) Airport,YPC,69.360838,-124.07547,Paulatuk,Canada,CA,0
1844,Port Hawkesbury Airport,YPS,45.6567001343,-61.3680992126,Port Hawkesbury,Canada,CA,0
1845,Peace River Airport,YPE,56.226898,-117.446999,Peace River,Canada,CA,0
1846,Portage-la-Prairie / Southport Airport,YPG,49.903099,-98.273817,Portage la Prairie,Canada,CA,0
1847,Inukjuak Airport,YPH,58.471901,-78.076897,Inukjuak,Canada,CA,0
1849,Pickle Lake Airport,YPL,51.4463996887207,-90.21420288085938,Pickle Lake,Canada,CA,0
1850,Pikangikum Airport,YPM,51.819698,-93.973297,Pikangikum,Canada,CA,0
1851,Port-Menier Airport,YPN,49.836399,-64.288597,Port-Menier,Canada,CA,0
1852,Peawanuck Airport,YPO,54.987932,-85.442648,Peawanuck,Canada,CA,0
1854,Peterborough Regional Airport,YPQ,44.232251,-78.362053,Peterborough,Canada,CA,0
1855,Prince Rupert Airport,YPR,54.286098480199996,-130.445007324,Prince Rupert,Canada,CA,0
1859,Powell River Airport,YPW,49.83420181274414,-124.5,Powell River,Canada,CA,0
1860,Puvirnituq Airport,YPX,60.050598,-77.286903,Puvirnituq,Canada,CA,0
1861,Fort Chipewyan Airport,YPY,58.7672004699707,-111.11699676513672,Fort Chipewyan,Canada,CA,0
1862,Burns Lake Airport,YPZ,54.3764,-125.950996,Burns Lake,Canada,CA,0
1863,Muskoka Airport,YQA,44.975376,-79.306546,Gravenhurst,Canada,CA,0
1864,Quebec Jean Lesage International Airport,YQB,46.7911,-71.393303,Quebec,Canada,CA,0
1865,The Pas Airport,YQD,53.97140121459961,-101.09100341796875,The Pas,Canada,CA,0
1866,Red Deer Regional Airport,YQF,52.182201,-113.893997,Springbrook,Canada,CA,0
1867,Windsor International Airport,YQG,42.2756,-82.955597,Windsor,Canada,CA,0
1868,Watson Lake Airport,YQH,60.116839,-128.821993,Watson Lake,Canada,CA,0
1869,Yarmouth Airport,YQI,43.826900482177734,-66.08809661865234,Yarmouth,Canada,CA,0
1870,Kenora Airport,YQK,49.788299560546875,-94.36309814453125,Kenora,Canada,CA,0
1871,Lethbridge County Airport,YQL,49.6302986145,-112.800003052,Lethbridge,Canada,CA,0
1872,Greater Moncton Roméo LeBlanc International Airport,YQM,46.113189,-64.67719,Moncton,Canada,CA,0
1873,Nakina Airport,YQN,50.18280029296875,-86.69640350341797,Nakina,Canada,CA,0
1874,Comox Valley International Airport / CFB Comox,YQQ,49.7108,-124.887001,Comox,Canada,CA,0
1875,Regina International Airport,YQR,50.431938,-104.660906,Regina,Canada,CA,0
1876,St Thomas Municipal Airport,YQS,42.77000045776367,-81.11080169677734,St Thomas,Canada,CA,0
1877,Thunder Bay International Airport,YQT,48.371899,-89.323898,Thunder Bay,Canada,CA,0
1878,Grande Prairie Airport,YQU,55.1796989441,-118.885002136,Grande Prairie,Canada,CA,0
1879,Yorkton Municipal Airport,YQV,51.26470184326172,-102.46199798583984,Yorkton,Canada,CA,0
1880,North Battleford Airport,YQW,52.769409,-108.243742,North Battleford,Canada,CA,0
1881,Gander International Airport,YQX,48.936258,-54.567719,Gander,Canada,CA,0
1882,Sydney / J.A. Douglas McCurdy Airport,YQY,46.161072,-60.049759,Sydney,Canada,CA,0
1883,Quesnel Airport,YQZ,53.026100158691406,-122.51000213623047,Quesnel,Canada,CA,0
1884,Rae Lakes Airport,YRA,64.116096,-117.309998,Gamètì,Canada,CA,0
1885,Resolute Bay Airport,YRB,74.7169036865,-94.9693984985,Resolute Bay,Canada,CA,0
1887,Rivière-du-Loup Airport,YRI,47.764400482177734,-69.58470153808594,Rivière-du-Loup,Canada,CA,0
1888,Roberval Airport,YRJ,48.519665,-72.265735,Roberval,Canada,CA,0
1889,Red Lake Airport,YRL,51.066898345947266,-93.79309844970703,Red Lake,Canada,CA,0
1890,Rocky Mountain House Airport,YRM,52.4296989441,-114.903999329,Rocky Mountain House,Canada,CA,0
1891,Ottawa / Rockcliffe Airport,YRO,45.460496,-75.644001,Ottawa,Canada,CA,0
1893,Trois-Rivières Airport,YRQ,46.35279846191406,-72.67939758300781,Trois-Rivières,Canada,CA,0
1894,Red Sucker Lake Airport,YRS,54.167198,-93.557198,Red Sucker Lake,Canada,CA,0
1895,Rankin Inlet Airport,YRT,62.8114013672,-92.1157989502,Rankin Inlet,Canada,CA,0
1896,Revelstoke Airport,YRV,50.962245,-118.184258,Revelstoke,Canada,CA,0
1897,Sudbury Airport,YSB,46.625,-80.79889678955078,Sudbury,Canada,CA,0
1898,Sherbrooke Airport,YSC,45.438599,-71.691399,Sherbrooke,Canada,CA,0
1900,Squamish Airport,YSE,49.7817001343,-123.162002563,Squamish,Canada,CA,0
1901,Stony Rapids Airport,YSF,59.250301361083984,-105.84100341796875,Stony Rapids,Canada,CA,0
1903,Smiths Falls-Montague (Russ Beach) Airport,YSH,44.945801,-75.940598,Smiths Falls,Canada,CA,0
1904,Saint John Airport,YSJ,45.31610107421875,-65.89029693603516,Saint John,Canada,CA,0
1905,Sanikiluaq Airport,YSK,56.536891,-79.250221,Sanikiluaq,Canada,CA,0
1906,Saint-Léonard Airport,YSL,47.157097,-67.836242,Saint-Léonard,Canada,CA,0
1907,Fort Smith Airport,YSM,60.020302,-111.961998,Fort Smith,Canada,CA,0
1908,Niagara District Airport,YCM,43.191598,-79.171686,Niagara-on-the-Lake,Canada,CA,0
1909,Marathon Airport,YSP,48.75529861450195,-86.34439849853516,Marathon,Canada,CA,0
1912,St. Theresa Point Airport,YST,53.845261,-94.851966,St. Theresa Point,Canada,CA,0
1913,Summerside Airport,YSU,46.440601,-63.833599,Slemon Park,Canada,CA,0
1915,Sachs Harbour (David Nasogaluak Jr. Saaryuaq) Airport,YSY,71.993896,-125.242996,Sachs Harbour,Canada,CA,0
1917,Pembroke Airport,YTA,45.86439895629883,-77.25170135498047,Pembroke,Canada,CA,0
1918,Cape Dorset Airport,YTE,64.230003,-76.526703,Kinngait,Canada,CA,0
1919,Alma Airport,YTF,48.5089,-71.641899,Alma,Canada,CA,0
1920,Thompson Airport,YTH,55.80110168457031,-97.86419677734375,Thompson,Canada,CA,0
1921,Big Trout Lake Airport,YTL,53.817799,-89.896896,Big Trout Lake,Canada,CA,0
1923,Tasiujaq Airport,YTQ,58.667801,-69.955803,Tasiujaq,Canada,CA,0
1924,CFB Trenton,YTR,44.118900299072266,-77.5280990600586,Trenton,Canada,CA,0
1925,Timmins/Victor M. Power,YTS,48.569698333699996,-81.376701355,Timmins,Canada,CA,0
1926,Billy Bishop Toronto City Airport,YTZ,43.627852,-79.39553,Toronto,Canada,CA,0
1927,Tuktoyaktuk / James Gruben Airport,YUB,69.433296,-133.026001,Tuktoyaktuk,Canada,CA,0
1928,Montreal / Pierre Elliott Trudeau International Airport,YUL,45.467837,-73.742294,Montréal,Canada,CA,0
1929,Naujaat Airport,YUT,66.521024,-86.225166,Repulse Bay,Canada,CA,0
1930,Hall Beach Airport,YUX,68.7761,-81.2425,Sanirajak,Canada,CA,0
1931,Rouyn Noranda Airport,YUY,48.20610046386719,-78.83560180664062,Rouyn-Noranda,Canada,CA,0
1932,Bonaventure Airport,YVB,48.071098,-65.460297,Bonaventure,Canada,CA,0
1933,La Ronge Airport,YVC,55.151401519800004,-105.262001038,La Ronge,Canada,CA,0
1935,Vermilion Airport,YVG,53.357714,-110.827388,Vermilion,Canada,CA,0
1936,Vernon Regional Airport,YVE,50.246163,-119.330963,Vernon,Canada,CA,0
314953,Tommy Kochon Airport,YCK,67.02015,-126.128364,Colville Lake,Canada,CA,0
1937,Qikiqtarjuaq Airport,YVM,67.54656,-64.03141,Qikiqtarjuaq,Canada,CA,0
1938,Val-d'Or Airport,YVO,48.0532989502,-77.7827987671,Val-d'Or,Canada,CA,0
1939,Kuujjuaq Airport,YVP,58.096099853515625,-68.4269027709961,Kuujjuaq,Canada,CA,0
1940,Norman Wells Airport,YVQ,65.28160095214844,-126.7979965209961,Norman Wells,Canada,CA,0
1941,Vancouver International Airport,YVR,49.193901,-123.183998,Vancouver,Canada,CA,0
1942,Buffalo Narrows Airport,YVT,55.8418998718,-108.417999268,Buffalo Narrows,Canada,CA,0
1943,Wiarton Airport,YVV,44.7458,-81.107201,Wiarton,Canada,CA,0
1944,Deer Lake Airport,YVZ,52.655613,-94.061208,Deer Lake,Canada,CA,0
954,Wekweètì Airport,YFJ,64.190804,-114.077002,Wekweètì,Canada,CA,0
1946,Winnipeg / James Armstrong Richardson International Airport,YWG,49.909999847399995,-97.2398986816,Winnipeg,Canada,CA,0
1948,Déline Airport,YWJ,65.211098,-123.435997,Déline,Canada,CA,0
1949,Wabush Airport,YWK,52.92190170288086,-66.8644027709961,Wabush,Canada,CA,0
1950,Williams Lake Airport,YWL,52.1831016541,-122.054000854,Williams Lake,Canada,CA,0
1952,Webequie Airport,YWP,52.959393,-87.374868,Webequie,Canada,CA,0
1954,Wrigley Airport,YWY,63.20940017700195,-123.43699645996094,Wrigley,Canada,CA,0
1955,Cranbrook/Canadian Rockies International Airport,YXC,49.610802,-115.781998,Cranbrook,Canada,CA,0
1957,Saskatoon John G. Diefenbaker International Airport,YXE,52.170723,-106.700793,Saskatoon,Canada,CA,0
1958,Medicine Hat Regional Airport,YXH,50.018902,-110.721001,Medicine Hat,Canada,CA,0
1959,Fort St John / North Peace Regional Airport,YXJ,56.238098,-120.739998,Fort Saint John,Canada,CA,0
1960,Rimouski Airport,YXK,48.477644,-68.496323,Rimouski,Canada,CA,0
1961,Sioux Lookout Airport,YXL,50.11389923095703,-91.9052963256836,Sioux Lookout,Canada,CA,0
1962,Whale Cove Airport,YXN,62.240002,-92.598099,Whale Cove,Canada,CA,0
1963,Pangnirtung Airport,YXP,66.144878,-65.713606,Pangnirtung,Canada,CA,0
1964,Beaver Creek Airport,YXQ,62.410301208496094,-140.86700439453125,Beaver Creek,Canada,CA,0
1965,Earlton (Timiskaming Regional) Airport,YXR,47.697400654599996,-79.8473453522,Earlton,Canada,CA,0
1966,Prince George (International) Airport,YXS,53.884311,-122.666554,Prince George,Canada,CA,0
1967,Northwest Regional Airport Terrace-Kitimat,YXT,54.468498,-128.576009,Terrace,Canada,CA,0
1968,London International Airport,YXU,43.032845,-81.149003,London,Canada,CA,0
1969,Abbotsford International Airport,YXX,49.025299,-122.361,Abbotsford,Canada,CA,0
1970,Whitehorse / Erik Nielsen International Airport,YXY,60.708533,-135.065705,Whitehorse,Canada,CA,0
1971,Wawa Airport,YXZ,47.96670150756836,-84.78669738769531,Wawa,Canada,CA,0
1972,North Bay Jack Garland Airport,YYB,46.363602,-79.422798,North Bay,Canada,CA,0
1973,Calgary International Airport,YYC,51.118822,-114.009933,Calgary,Canada,CA,0
1974,Smithers Airport,YYD,54.82469940185547,-127.18299865722656,Smithers,Canada,CA,0
1975,Fort Nelson Airport,YYE,58.8363990784,-122.597000122,Fort Nelson,Canada,CA,0
1976,Penticton Airport,YYF,49.46310043334961,-119.60199737548828,Penticton,Canada,CA,0
1977,Charlottetown Airport,YYG,46.288911,-63.125174,Charlottetown,Canada,CA,0
1978,Taloyoak Airport,YYH,69.5467,-93.576698,Taloyoak,Canada,CA,0
1979,Victoria International Airport,YYJ,48.647201,-123.427792,Victoria,Canada,CA,0
1980,Lynn Lake Airport,YYL,56.86389923095703,-101.07599639892578,Lynn Lake,Canada,CA,0
1981,Cowley Airport,YYM,49.636398315399994,-114.09400177,Cowley,Canada,CA,0
1982,Swift Current Airport,YYN,50.291900634799994,-107.691001892,Swift Current,Canada,CA,0
1984,Churchill Airport,YYQ,58.739200592041016,-94.06500244140625,Churchill,Canada,CA,0
1985,Goose Bay Airport,YYR,53.3191986084,-60.4258003235,Goose Bay,Canada,CA,0
1986,St. John's International Airport,YYT,47.618599,-52.7519,St. John's,Canada,CA,0
1987,Kapuskasing Airport,YYU,49.411587,-82.469645,Kapuskasing,Canada,CA,0
1988,Armstrong Airport,YYW,50.29029846191406,-88.90969848632812,Armstrong,Canada,CA,0
1989,Mont Joli Airport,YYY,48.60860061645508,-68.20809936523438,Mont-Joli,Canada,CA,0
1990,Toronto Pearson International Airport,YYZ,43.675935,-79.629421,Toronto,Canada,CA,0
1992,Gore Bay Manitoulin Airport,YZE,45.8853,-82.567802,Gore Bay,Canada,CA,0
1993,Yellowknife International Airport,YZF,62.462799,-114.440002,Yellowknife,Canada,CA,0
1994,Salluit Airport,YZG,62.179401,-75.667198,Salluit,Canada,CA,0
1995,Slave Lake Airport,YZH,55.292945,-114.777276,Slave Lake,Canada,CA,0
1996,Sandspit Airport,YZP,53.25429916379999,-131.813995361,Sandspit,Canada,CA,0
1997,Chris Hadfield Airport,YZR,42.999401,-82.308899,Sarnia,Canada,CA,0
1998,Coral Harbour Airport,YZS,64.1932983398,-83.3593978882,Coral Harbour,Canada,CA,0
1999,Port Hardy Airport,YZT,50.680599212646484,-127.36699676513672,Port Hardy,Canada,CA,0
2000,Whitecourt Airport,YZU,54.143902,-115.787003,Whitecourt,Canada,CA,0
2001,Sept-Îles Airport,YZV,50.22330093383789,-66.2656021118164,Sept-Îles,Canada,CA,0
2002,Teslin Airport,YZW,60.17279815673828,-132.7429962158203,Teslin,Canada,CA,0
2003,CFB Greenwood,YZX,44.98440170288086,-64.91690063476562,Greenwood,Canada,CA,0
2005,York Landing Airport,ZAC,56.089401,-96.089203,York Landing,Canada,CA,0
2006,Shuswap Regional Airport,YSN,50.682802,-119.228996,Salmon Arm,Canada,CA,0
2008,Boundary Bay Airport,YDT,49.074338,-123.006877,Delta,Canada,CA,0
2009,Ilford Airport,ILF,56.051622,-95.61882,Ilford,Canada,CA,0
2010,Bathurst Airport,ZBF,47.6297,-65.738899,South Tetagouche,Canada,CA,0
2011,Bromont (Roland Désourdy) Airport,ZBM,45.290798,-72.741402,Bromont,Canada,CA,0
2012,Kelsey Airport,KES,56.0374984741,-96.50969696039999,Kelsey,Canada,CA,0
2013,Eastmain River Airport,ZEM,52.226398,-78.522499,Eastmain River,Canada,CA,0
2014,Faro Airport,ZFA,62.20750045776367,-133.37600708007812,Faro,Canada,CA,0
2015,Fond-du-Lac Airport,ZFD,59.3344,-107.181999,Fond-du-Lac,Canada,CA,0
2016,Pukatawagan Airport,XPK,55.749199,-101.265999,Pukatawagan,Canada,CA,0
2017,Fort Mcpherson Airport,ZFM,67.406993,-134.860182,Fort Mcpherson,Canada,CA,0
2018,Tulita Airport,ZFN,64.909496,-125.570297,Tulita,Canada,CA,0
2019,Grand Forks Airport,ZGF,49.015598,-118.431,Grand Forks,Canada,CA,0
2020,Gods River Airport,ZGI,54.839699,-94.078598,Gods River,Canada,CA,0
2021,Little Grand Rapids Airport,ZGR,52.045417,-95.46617,Little Grand Rapids,Canada,CA,0
2022,High Prairie Airport,ZHP,55.3936,-116.474998,High Prairie,Canada,CA,0
308731,Corazón de Jesús Airport,CZJ,9.44686,-78.575678,Tupile,Panama,PA,0
2023,Jenpeg Airport,ZJG,54.51890182495117,-98.04609680175781,Jenpeg,Canada,CA,0
2024,Swan River Airport,ZJN,52.120602,-101.236,Swan River,Canada,CA,0
2025,Kashechewan Airport,ZKE,52.282501,-81.677803,Kashechewan,Canada,CA,0
2026,Thicket Portage Airport,YTD,55.31890106201172,-97.70780181884766,Thicket Portage,Canada,CA,0
2027,Muskrat Dam Airport,MSA,53.441399,-91.762802,Muskrat Dam,Canada,CA,0
2028,South Cariboo Region / 108 Mile Airport,ZMH,51.736099243199995,-121.333000183,108 Mile,Canada,CA,0
2029,Pikwitonei Airport,PIW,55.58890151977539,-97.16419982910156,Pikwitonei,Canada,CA,0
2030,Masset Airport,ZMT,54.0275,-132.125,Masset,Canada,CA,0
17060,Chisana Airport,CZN,62.071201,-142.048004,Chisana,United States,US,0
2031,Poplar River Airport,XPP,52.996526,-97.274194,Poplar River,Canada,CA,0
17061,Chistochina Airport,CZO,62.5634994507,-144.669006348,Chistochina,United States,US,0
2033,Sachigo Lake Airport,ZPB,53.890885,-92.195935,Sachigo Lake,Canada,CA,0
2034,Pincher Creek Airport,WPC,49.520429,-113.997002,Pincher Creek,Canada,CA,0
2035,Pinehouse Lake Airport,ZPO,55.5280990601,-106.582000732,Pinehouse Lake,Canada,CA,0
2036,Round Lake (Weagamow Lake) Airport,ZRJ,52.9436,-91.312798,Round Lake,Canada,CA,0
2037,Sandy Lake Airport,ZSJ,53.06420135498047,-93.34439849853516,Sandy Lake,Canada,CA,0
2038,South Indian Lake Airport,XSI,56.792801,-98.907204,South Indian Lake,Canada,CA,0
2039,Stewart Airport,ZST,55.935410448,-129.982434511,Stewart,Canada,CA,0
2040,Bloodvein River Airport,YDV,51.784568,-96.692305,Bloodvein River,Canada,CA,0
2041,Shamattawa Airport,ZTM,55.86356,-92.081137,Shamattawa,Canada,CA,0
2042,Ignace Municipal Airport,ZUC,49.428204,-91.720418,Ignace,Canada,CA,0
2043,Churchill Falls Airport,ZUM,53.5619010925293,-64.10639953613281,Churchill Falls,Canada,CA,0
2045,Lac Brochet Airport,XLB,58.614279,-101.468954,Lac Brochet,Canada,CA,0
2046,Wollaston Lake Airport,ZWL,58.106899,-103.171997,Wollaston Lake,Canada,CA,0
19598,Canandaigua Airport,IUA,42.908902,-77.325226,Ontario County IDA,United States,US,0
17080,Delta Junction Airport,DJN,64.049861,-145.722656,Delta Junction,United States,US,0
2149,Mostaganem Airport,MQV,35.90518,0.144539,Sayada,Algeria,DZ,0
2048,Bou Saada Airport,BUJ,35.3325,4.20639,Ouled Sidi Brahim,Algeria,DZ,0
2049,Soummam–Abane Ramdane Airport,BJA,36.712547,5.069909,Béjaïa,Algeria,DZ,0
2050,Houari Boumediene Airport,ALG,36.693886,3.214531,Algiers,Algeria,DZ,0
2051,Tiska Djanet Airport,DJG,24.285448,9.463652,Djanet,Algeria,DZ,0
2054,Illizi Takhamalt Airport,VVZ,26.723499,8.62265,Illizi,Algeria,DZ,0
32193,Ain Arnat Airport,QSF,36.178488,5.329909,Sétif,Algeria,DZ,0
2056,Aguenar – Hadj Bey Akhamok Airport,TMR,22.810992,5.450832,Tamanrasset,Algeria,DZ,0
2057,Jijel Ferhat Abbas Airport,GJL,36.794125,5.873652,Tahir,Algeria,DZ,0
2058,Mecheria Airport,MZW,33.535900116,-0.242353007197,Mecheria,Algeria,DZ,0
2060,Annaba Rabah Bitat Airport,AAE,36.826781,7.81334,Annaba,Algeria,DZ,0
2061,Mohamed Boudiaf International Airport,CZL,36.276001,6.62039,Constantine,Algeria,DZ,0
2062,Cheikh Larbi Tébessi Airport,TEE,35.4315986633,8.12071990967,Tébessi,Algeria,DZ,0
2063,Batna Mostefa Ben Boulaid Airport,BLJ,35.752102,6.30859,Batna,Algeria,DZ,0
310096,Daup Airport,DAF,-4.7403,145.9515,Daup,Papua New Guinea,PG,0
2064,Hassi R'Mel Airport,HRM,32.930401,3.31154,Hassi R'Mel,Algeria,DZ,0
340201,Dathina Airport,DAH,13.866884,46.133473,Dathina,Yemen,YE,0
302093,Dabo Airport,DAO,-8.431944444440001,147.843055556,Dabo,Papua New Guinea,PG,0
2065,Abdelhafid Boussouf Bou Chekif Airport,TID,35.341099,1.46315,Tiaret,Algeria,DZ,0
2067,Tindouf Airport,TIN,27.7003993988,-8.167099952700001,Tindouf,Algeria,DZ,0
2068,Chlef Aboubakr Belkaid International Airport,CFK,36.216614,1.341114,Chlef,Algeria,DZ,0
2069,Oran Tafraoui Airport,TAF,35.5424,-0.532278,Tafraoui,Algeria,DZ,0
2070,Zenata – Messali El Hadj Airport,TLM,35.012732,-1.457117,Zenata,Algeria,DZ,0
2071,Oran Es-Sénia (Ahmed Ben Bella) International Airport,ORN,35.620648,-0.622486,Es-Sénia,Algeria,DZ,0
2072,Béchar Boudghene Ben Ali Lotfi Airport,CBH,31.645700454711914,-2.269860029220581,Béchar,Algeria,DZ,0
2073,Sidi Bel Abbes Airport,BFW,35.1717987061,-0.593275010586,Sidi Bel Abbès,Algeria,DZ,0
2074,Ghriss Airport,MUW,35.207699,0.147142,Ghriss,Algeria,DZ,0
300333,El Bayadh Airport,EBH,33.721667,1.0925,El Bayadh,Algeria,DZ,0
31678,In Guezzam Airport,INF,19.560518,5.749326,In Guezzam,Algeria,DZ,0
30777,Bordj Badji Mokhtar Airport,BMW,21.3778,0.92698,Bordj Badji Mokhtar,Algeria,DZ,0
2075,Touat-Cheikh Sidi Mohamed Belkebir Airport,AZR,27.837601,-0.186414,Adrar,Algeria,DZ,0
2076,Biskra - Mohamed Khider Airport,BSK,34.79318,5.738899,Biskra,Algeria,DZ,0
2077,El Golea Airport,ELG,30.580732,2.861595,El Menia,Algeria,DZ,0
2078,Noumérat - Moufdi Zakaria Airport,GHA,32.384102,3.79411,El Atteuf,Algeria,DZ,0
2079,Hassi Messaoud-Oued Irara Krim Belkacem Airport,HME,31.673,6.14044,Hassi Messaoud,Algeria,DZ,0
2080,In Salah Airport,INZ,27.250999,2.51202,In Salah,Algeria,DZ,0
2081,Touggourt Sidi Madhi Airport,TGR,33.067799,6.08867,Touggourt,Algeria,DZ,0
2082,Laghouat - Molay Ahmed Medeghri Airport,LOO,33.7644,2.92834,Laghouat,Algeria,DZ,0
2083,Guemar Airport - مطار قمار بالوادي,ELU,33.511398,6.77679,Guemar,Algeria,DZ,0
2084,Timimoun Airport,TMX,29.237101,0.276033,Timimoun,Algeria,DZ,0
2085,Ain Beida Airport,OGX,31.9172,5.41278,Ouargla,Algeria,DZ,0
2086,Zarzaitine - In Aménas Airport,IAM,28.0515,9.64291,In Aménas,Algeria,DZ,0
2087,Cotonou Cadjehoun International Airport,COO,6.35723,2.38435,Cotonou,Benin,BJ,0
302113,Djougou Airport,DJA,9.69208333333,1.63777777778,Djougou,Benin,BJ,0
31734,Kandi Airport,KDC,11.14479,2.940381,Kandi,Benin,BJ,0
32001,Natitingou Airport,NAE,10.376965,1.360507,Natitingou,Benin,BJ,0
32162,Parakou Airport,PKO,9.35768985748291,2.609679937362671,Parakou,Benin,BJ,0
35350,Savé Airport,SVF,8.018170356750488,2.4645800590515137,Savé,Benin,BJ,0
17113,Dahl Creek Airport,DCK,66.943298,-156.904999,Dahl Creek,United States,US,0
302106,Dodoima Airport,DDM,-8.17736111111,147.809444444,Dodoima,Papua New Guinea,PG,0
336115,Deqing Moganshan Airport,DEQ,30.504264,120.107388,Huzhou,China,CN,0
315622,Nop Goliat Dekai Airport,DEX,-4.8557,139.482006,Dekai,Indonesia,ID,0
32704,Kaya Airport,XKY,13.067,-1.1,Kaya,Burkina Faso,BF,0
32132,Ouahigouya Airport,OUG,13.655287,-2.322067,Ouahigouya,Burkina Faso,BF,0
32696,Djibo Airport,XDJ,14.125,-1.624722,Djibo,Burkina Faso,BF,0
32705,Leo Airport,XLU,11.1,-2.1,Leo,Burkina Faso,BF,0
32179,Po Airport,PUP,11.179139,-1.148472,Po,Burkina Faso,BF,0
32694,Boulsa Airport,XBO,12.65,-0.567,Boulsa,Burkina Faso,BF,0
32693,Bogande Airport,XBG,12.983,-0.167,Bogande,Burkina Faso,BF,0
30919,Diapaga Airport,DIP,12.060324,1.784631,Diapaga,Burkina Faso,BF,0
30937,Dori Airport,DOR,14.021638,-0.068207,Dori,Burkina Faso,BF,0
31193,Fada N'gourma Airport,FNG,12.033,0.35,Fada N'gourma,Burkina Faso,BF,0
32699,Gorom-Gorom Airport,XGG,14.454174,-0.218644,Gorom-Gorom,Burkina Faso,BF,0
32702,Kantchari Airport,XKA,12.464046,1.492939,Kantchari,Burkina Faso,BF,0
32465,Tambao Airport,TMQ,14.790874,0.039492,Tambao,Burkina Faso,BF,0
32711,Pama Airport,XPA,11.25,0.7,Pama,Burkina Faso,BF,0
30651,Arly Airport,ARL,11.597,1.483,Arly,Burkina Faso,BF,0
32712,Sebba Airport,XSE,13.45,0.517,Sebba,Burkina Faso,BF,0
32432,Tenkodogo Airport,TEG,11.801149,-0.371377,Tenkodogo,Burkina Faso,BF,0
32715,Zabré Airport,XZA,11.167,-0.617,Zabré,Burkina Faso,BF,0
2088,Ouagadougou Thomas Sankara International Airport,OUA,12.3532,-1.51242,Ouagadougou,Burkina Faso,BF,0
30782,Banfora Airport,BNR,10.688861,-4.727726,Banfora,Burkina Faso,BF,0
30912,Dedougou Airport,DGU,12.459,-3.49,Dedougou,Burkina Faso,BF,0
32698,Gaoua Airport,XGA,10.384059,-3.163454,Gaoua,Burkina Faso,BF,0
32710,Nouna Airport,XNU,12.75,-3.867000103,Nouna,Burkina Faso,BF,0
2089,Bobo Dioulasso Airport,BOY,11.1601,-4.33097,Bobo Dioulasso,Burkina Faso,BF,0
32482,Tougan Airport,TUQ,13.059091,-3.077291,Tougan,Burkina Faso,BF,0
32695,Diebougou Airport,XDE,10.95,-3.25,Diebougou,Burkina Faso,BF,0
32691,Aribinda Airport,XAR,14.217000007600001,-0.883000016212,Aribinda,Burkina Faso,BF,0
2090,Kotoka International Airport,ACC,5.605189800262451,-0.16678600013256073,Accra,Ghana,GH,0
2091,Yakubu Tali International Airport,TML,9.553909,-0.86606,Tamale,Ghana,GH,0
2092,Wa Airport,WZA,10.0827,-2.50769,Wa,Ghana,GH,0
2093,Prempeh I International Airport,KMS,6.71456,-1.59082,Kumasi,Ghana,GH,0
2094,Sunyani Airport,NYI,7.36183,-2.32876,Sunyani,Ghana,GH,0
2095,Takoradi Airport,TKD,4.896059989929199,-1.7747600078582764,Sekondi-Takoradi,Ghana,GH,0
330380,Dalnegorsk Airport,DHG,44.558748,135.490005,Dalnegorsk,Russia,RU,0
340202,Ad-Dali Airport,DHL,13.73846,44.72719,Ad-Dali,Yemen,YE,0
323785,Aboisso Airport,ABO,5.461944,-3.234722,Aboisso,Côte d'Ivoire,CI,0
2096,Félix-Houphouët-Boigny International Airport,ABJ,5.26139,-3.92629,Abidjan,Côte d'Ivoire,CI,0
32098,Abengourou Airport,OGO,6.71556,-3.47028,Abengourou,Côte d'Ivoire,CI,0
30805,Boundiali Airport,BXI,9.540571,-6.469831,Boundiali,Côte d'Ivoire,CI,0
2097,Bouaké Airport,BYK,7.7388,-5.07367,Bouaké,Côte d'Ivoire,CI,0
30790,Bouna Airport,BQO,9.255556,-3.033333,Bouna,Côte d'Ivoire,CI,0
30692,Soko Airport,BDK,8.01722,-2.76194,Bondoukou,Côte d'Ivoire,CI,0
30918,Dimbokro Airport,DIM,6.65167,-4.64056,Dimbokro,Côte d'Ivoire,CI,0
2098,Daloa Airport,DJO,6.79281,-6.47319,Daloa,Côte d'Ivoire,CI,0
31527,Gagnoa Airport,GGN,6.102855,-5.986809,Gagnoa,Côte d'Ivoire,CI,0
31528,Guiglo Airport,GGO,6.534711,-7.526847,Guiglo,Côte d'Ivoire,CI,0
30917,Nero-Mer Airport,BBV,4.64341306686,-6.923961639400001,Grand-Béréby,Côte d'Ivoire,CI,0
2099,Korhogo Airport,HGO,9.38718,-5.55666,Korhogo,Côte d'Ivoire,CI,0
2100,Man Airport,MJC,7.27207,-7.58736,Man,Côte d'Ivoire,CI,0
31742,Odienne Airport,KEO,9.539457,-7.56134,Odienne,Côte d'Ivoire,CI,0
32095,Ouango Fitini Airport,OFI,9.6,-4.05,Ouango Fitini,Côte d'Ivoire,CI,0
32280,Séguéla Airport,SEO,7.96,-6.644167,Séguéla,Côte d'Ivoire,CI,0
2101,San Pedro Airport,SPY,4.74672,-6.66082,San,Côte d'Ivoire,CI,0
32750,Sassandra Airport,ZSS,4.928888,-6.133156,Sassandra,Côte d'Ivoire,CI,0
28483,Tabou Airport,TXU,4.437809467315674,-7.362728118896484,Tabou,Côte d'Ivoire,CI,0
316459,Mahana Airport,TOZ,8.2934,-7.674,Touba,Côte d'Ivoire,CI,0
2102,Yamoussoukro International Airport,ASK,6.90317,-5.36558,Yamoussoukro,Côte d'Ivoire,CI,0
330383,Dalnerechensk Airport,DLR,45.877949,133.735822,Dalnerechensk,Russia,RU,0
4971,Umaru Musa Yar'adua Airport,DKA,13.0078,7.66045,Katsina,Nigeria,NG,0
2104,Nnamdi Azikiwe International Airport,ABV,9.00679,7.26317,Abuja,Nigeria,NG,0
309668,Akwa Ibom International Airport,QUO,4.8725,8.093,Uyo,Nigeria,NG,0
2105,Akure Airport,AKR,7.246739864349365,5.3010101318359375,Akure,Nigeria,NG,0
300781,Asaba International Airport,ABB,6.204167,6.665278,Asaba,Nigeria,NG,0
323056,Sir Abubakar Tafawa Balewa Bauchi State International Airport,BCU,10.482833,9.744,Bauchi,Nigeria,NG,0
2106,Benin Airport,BNI,6.316979885101318,5.5995001792907715,Benin,Nigeria,NG,0
2107,Margaret Ekpo International Airport,CBQ,4.976019859313965,8.347200393676758,Calabar,Nigeria,NG,0
2108,Akanu Ibiam International Airport,ENU,6.473718,7.560463,Enegu,Nigeria,NG,0
44578,Gombe Lawanti International Airport,GMO,10.298889,10.9,Gombe,Nigeria,NG,0
2110,Ibadan Airport,IBA,7.362460136413574,3.97832989692688,Ibadan,Nigeria,NG,0
2111,General Tunde Idiagbon International Airport,ILR,8.44021,4.49392,Ilorin/Ogbomosho,Nigeria,NG,0
2112,Sam Mbakwe International Cargo Airport,QOW,5.42706,7.20603,Owerri,Nigeria,NG,0
2113,Yakubu Gowon Airport,JOS,9.639829635620117,8.869050025939941,Jos,Nigeria,NG,0
2114,Kaduna International Airport,KAD,10.696,7.32011,Kaduna,Nigeria,NG,0
2115,Mallam Aminu Kano International Airport,KAN,12.045613,8.523566,Kano,Nigeria,NG,0
2116,Maiduguri International Airport,MIU,11.854163,13.080702,Maiduguri,Nigeria,NG,0
2117,Makurdi Airport,MDI,7.70388,8.61394,Makurdi,Nigeria,NG,0
2118,Murtala Muhammed International Airport,LOS,6.57737,3.32116,Lagos,Nigeria,NG,0
2119,Minna Airport,MXJ,9.652170181274414,6.462259769439697,Minna,Nigeria,NG,0
2120,Port Harcourt International Airport,PHC,5.01549,6.94959,Port Harcourt,Nigeria,NG,0
2121,Sadiq Abubakar III International Airport,SKO,12.915729,5.207547,Sokoto,Nigeria,NG,0
32192,Warri Airport,QRW,5.59821,5.8187,Okpe,Nigeria,NG,0
2122,Yola Airport,YOL,9.257550239562988,12.430399894714355,Yola,Nigeria,NG,0
2123,Zaria Airport,ZAR,11.1302,7.68581,Zaria,Nigeria,NG,0
315624,Deputatskiy Airport,DPT,69.392503,139.890012,Deputatskiy,Russia,RU,0
2124,Maradi Airport,MFQ,13.5025,7.12675,Maradi,Niger,NE,0
2125,Diori Hamani International Airport,NIM,13.4815,2.18361,Niamey,Niger,NE,0
2126,Tahoua Airport,THZ,14.8757,5.26536,Tahoua,Niger,NE,0
2127,Mano Dayak International Airport,AJY,16.966,8.00011,Agadez,Niger,NE,0
42443,Arlit Airport,RLT,18.7903995514,7.36595010757,Arlit,Niger,NE,0
2130,Zinder Airport,ZND,13.779000282287598,8.983759880065918,Zinder,Niger,NE,0
302475,Dilasag Airport,DSG,16.445833333299998,122.206805556,Dilasag,Philippines,PH,0
2131,Tabarka-Aïn Draham International Airport,TBJ,36.98,8.87694,Tabarka,Tunisia,TN,0
2132,Monastir Habib Bourguiba International Airport,MIR,35.75809860229492,10.75469970703125,Monastir,Tunisia,TN,0
44483,Enfidha - Hammamet International Airport,NBE,36.075833,10.438611,Enfidha,Tunisia,TN,0
2133,Tunis Carthage International Airport,TUN,36.851002,10.2272,Tunis,Tunisia,TN,0
2136,Gafsa Ksar International Airport,GAF,34.422000885009766,8.822500228881836,Gafsa,Tunisia,TN,0
2137,Gabès Matmata International Airport,GAE,33.733691,9.91941,Gabès,Tunisia,TN,0
2139,Djerba Zarzis International Airport,DJE,33.873719,10.7773,Mellita,Tunisia,TN,0
2140,El Borma Airport,EBM,31.7043,9.25462,El Borma,Tunisia,TN,0
2141,Sfax Thyna International Airport,SFA,34.717999,10.691,Sfax,Tunisia,TN,0
2142,Tozeur Nefta International Airport,TOE,33.939701080322266,8.110560417175293,Tozeur,Tunisia,TN,0
318121,Andavadoaka Airport,DVD,-22.06608,43.259573,Andavadoaka,Madagascar,MG,0
2143,Niamtougou International Airport,LRL,9.766675,1.090944,Niamtougou,Togo,TG,0
2144,Lomé–Tokoin International Airport,LFW,6.16561,1.25451,Lomé,Togo,TG,0
302489,Elenak Airport,EAL,9.319305555560002,166.847777778,Mejato Island,Marshall Islands,MH,0
2152,Antwerp International Airport (Deurne),ANR,51.190667,4.463153,Antwerp,Belgium,BE,0
2155,Brussels Airport,BRU,50.901402,4.48444,Zaventem,Belgium,BE,0
2157,Brussels South Charleroi Airport,CRL,50.461963,4.459562,Charleroi,Belgium,BE,0
2161,Flanders International Airport Kortrijk-Wevelgem,KJK,50.818878,3.209551,Wevelgem,Belgium,BE,0
2162,Liège Airport,LGG,50.638574,5.443897,Grâce-Hollogne,Belgium,BE,0
312833,Ebon Airport,EBO,4.5982,168.752,Ebon Atoll,Marshall Islands,MH,0
2163,Ostend-Bruges International Airport,OST,51.1998,2.874673,Oostende,Belgium,BE,0
2169,Oostmalle Airfield,OBL,51.269092,4.762428,Zoersel,Belgium,BE,0
41594,Méndez Airport,MZD,-2.733330011367798,-78.31670379638672,Santiago de Méndez,Ecuador,EC,0
2184,Leipzig–Altenburg Airport,AOC,50.981945,12.506389,Nobitz,Germany,DE,0
2187,Heringsdorf Airport,HDF,53.8787,14.1523,Zirchow,Germany,DE,0
2191,Riesa-Göhlis Airport,IES,51.29361,13.356111,Riesa,Germany,DE,0
2193,Müritz Airpark,REB,53.306389,12.752222,Lärz,Germany,DE,0
28546,Cochstedt Airport,CSO,51.8564,11.4203,Hecklingen,Germany,DE,0
2196,Stralsund-Barth Airport,BBH,54.338253,12.710515,Barth,Germany,DE,0
2743,Neubrandenburg Trollenhagen Airport,FNB,53.6022,13.306,Trollenhagen,Germany,DE,0
28584,Rügen Airport,GTI,54.38347,13.325542,Dreschvitz,Germany,DE,0
28622,Köthen Airport,KOQ,51.723745,11.948826,Köthen (Anhalt),Germany,DE,0
2207,Peenemünde Airport,PEF,54.15778,13.774444,Peenemünde,Germany,DE,0
301881,Berlin Brandenburg Airport,BER,52.361738,13.502341,Berlin,Germany,DE,0
2210,Dresden Airport,DRS,51.134123,13.767831,Dresden,Germany,DE,0
2211,Erfurt-Weimar Airport,ERF,50.978281,10.960713,Erfurt,Germany,DE,0
2212,Frankfurt Main Airport,FRA,50.026706,8.55835,Frankfurt am Main,Germany,DE,0
2213,Münster Osnabrück Airport,FMO,52.133816,7.688482,Greven,Germany,DE,0
2214,Hamburg Helmut Schmidt Airport,HAM,53.630402,9.98823,Hamburg,Germany,DE,0
2216,Cologne Bonn Airport,CGN,50.865898,7.14274,Köln (Cologne),Germany,DE,0
2217,Düsseldorf Airport,DUS,51.289501,6.76678,Düsseldorf,Germany,DE,0
2218,Munich Airport,MUC,48.353802,11.7861,Munich,Germany,DE,0
2219,Nuremberg Airport,NUE,49.498699,11.078056,Nuremberg,Germany,DE,0
2220,Leipzig/Halle Airport,LEJ,51.420657,12.232705,Schkeuditz,Germany,DE,0
2221,Saarbrücken Airport,SCN,49.214545,7.109735,Saarbrücken,Germany,DE,0
2222,Stuttgart Airport,STR,48.689899,9.22196,Stuttgart,Germany,DE,0
2224,Hannover Airport,HAJ,52.461102,9.68508,Hannover,Germany,DE,0
2225,Bremen Airport,BRE,53.046786,8.78932,Bremen,Germany,DE,0
2227,Frankfurt-Hahn Airport,HHN,49.946353,7.261734,Frankfurt am Main (Lautzenhausen),Germany,DE,0
2228,Mannheim-City Airport,MHG,49.473057,8.514167,Mannheim,Germany,DE,0
2232,Eisenach-Kindel Airport,EIB,50.991604,10.47973,Hörselberg-Hainich,Germany,DE,0
2233,Siegerland Airport,SGE,50.707699,8.08297,Burbach,Germany,DE,0
29073,Itzehoe Hungriger Wolf Airfield,IZE,53.992009,9.576409,Hohenlockstedt,Germany,DE,0
2234,Hamburg-Finkenwerder Airport,XFW,53.5352783203125,9.835556030273438,Hamburg,Germany,DE,0
2235,Kiel-Holtenau Airport,KEL,54.37957,10.145266,Kiel,Germany,DE,0
2236,Lübeck Blankensee Airport,LBC,53.805401,10.7192,Lübeck,Germany,DE,0
28662,Neumünster Airport,EUM,54.079445,9.941389,Neumünster,Germany,DE,0
2237,Memmingen Allgau Airport,FMM,47.988092,10.238248,Memmingen,Germany,DE,0
28490,Aachen-Merzbrück Airport,AAH,50.823055,6.186389,Aachen,Germany,DE,0
2241,Essen-Mülheim Airport,ESS,51.402302,6.93733,Essen,Germany,DE,0
2242,Bielefeld Airport,BFE,51.964722,8.544444,Bielefeld,Germany,DE,0
2243,Mönchengladbach Airport,MGL,51.230278,6.504444,Mönchengladbach,Germany,DE,0
2244,Paderborn Lippstadt Airport,PAD,51.612527,8.617459,Büren,Germany,DE,0
2246,Weeze (Niederrhein) Airport,NRN,51.601362,6.141228,Weeze,Germany,DE,0
2247,Dortmund Airport,DTM,51.518299,7.61224,Dortmund,Germany,DE,0
2248,Augsburg Airport,AGB,48.425278,10.931667,Augsburg,Germany,DE,0
28630,Landshut Airfield,QLG,48.512019,12.034865,Landshut,Germany,DE,0
2252,Oberpfaffenhofen Airport,OBF,48.081402,11.2831,Weßling,Germany,DE,0
2253,Straubing Airport,RBM,48.900833,12.516667,Atting,Germany,DE,0
2256,Bodensee Airport Friedrichshafen,FDH,47.671299,9.51149,Friedrichshafen,Germany,DE,0
2261,Bayreuth Airport,BYU,49.985001,11.64,Bindlach,Germany,DE,0
2262,Burg Feuerstein Airport,URD,49.794167,11.133611,Ebermannstadt,Germany,DE,0
43125,Giebelstadt Airport,GHF,49.6480560303,9.966388702390002,Giebelstadt,Germany,DE,0
2263,Hof-Plauen Airport,HOQ,50.288544,11.852876,Hof,Germany,DE,0
2265,Bitburg Airport,BBJ,49.945278,6.565,Bitburg,Germany,DE,0
2269,Zweibrücken Airport,ZQW,49.2094,7.40056,Zweibrücken,Germany,DE,0
2270,Karlsruhe Baden-Baden Airport,FKB,48.7794,8.0805,Rheinmünster,Germany,DE,0
2276,Lahr Airport,LHA,48.369301,7.82772,Lahr/Schwarzwald,Germany,DE,0
2284,Braunschweig-Wolfsburg Airport,BWE,52.319199,10.5561,Braunschweig,Germany,DE,0
2285,Kassel Airport,KSF,51.418395,9.391638,Calden,Germany,DE,0
2288,Emden Airport,EME,53.391109,7.2275,Emden,Germany,DE,0
28751,Wangerooge Airport,AGE,53.782544,7.919584,Wangerooge,Germany,DE,0
2290,JadeWeser Airport,WVN,53.50222,8.052222,Wilhelmshaven,Germany,DE,0
28614,Juist Airport,JUI,53.681421,7.056398,Juist,Germany,DE,0
28632,Langeoog Airport,LGO,53.742379,7.496345,Langeoog,Germany,DE,0
2291,Borkum Airport,BMK,53.59639,6.709167,Borkum,Germany,DE,0
28668,Norden-Norddeich Airport,NOD,53.633057,7.190278,Norddeich,Germany,DE,0
28744,Varrelbusch Airfield,VAC,52.908333,8.040556,Cloppenburg,Germany,DE,0
2292,Norderney Airport,NRD,53.706944,7.23,Norderney,Germany,DE,0
28520,Baltrum Airport,BMR,53.72485,7.373257,Baltrum,Germany,DE,0
28590,Heide-Büsum Airport,HEI,54.153332,8.901667,Oesterdeichstrich,Germany,DE,0
2293,Flensburg-Schäferhaus Airport,FLF,54.773335,9.378889,Flensburg,Germany,DE,0
28591,Helgoland-Düne Airport,HGL,54.18528,7.915833,Helgoland,Germany,DE,0
2294,Husum-Schwesing Airport,QHU,54.5099983215,9.138333320620001,Husum,Germany,DE,0
28734,Sankt Peter-Ording Airport,PSH,54.308887,8.686944,Sankt Peter-Ording,Germany,DE,0
2296,Westerland Sylt Airport,GWT,54.9132,8.34047,Sylt,Germany,DE,0
28765,Wyk auf Föhr Airport,OHR,54.684444,8.528333,Wyk auf Föhr,Germany,DE,0
2298,Kärdla Airport,KDL,58.99079895019531,22.830699920654297,Kärdla,Estonia,EE,0
2299,Kuressaare Airport,URE,58.22990036010742,22.50950050354004,Kuressaare,Estonia,EE,0
2300,Pärnu Airport,EPU,58.41899871826172,24.47279930114746,Pärnu,Estonia,EE,0
2357,Berenice International Airport / Banas Cape Air Base,EES,23.980437,35.460277,Berenice Troglodytica,Egypt,EG,0
2301,Lennart Meri Tallinn Airport,TLL,59.413246,24.83264,Tallinn,Estonia,EE,0
2302,Tartu Airport,TAY,58.307438,26.686473,Tartu,Estonia,EE,0
2303,Enontekio Airport,ENF,68.362602233887,23.424299240112,Enontekio,Finland,FI,0
